[
  {
    "id": 1,
    "category": "Beauty",
    "subCategory": "Hair Care",
    "name": "Hair Care Implement",
    "latitude": 37.051587,
    "longitude": -95.222700,
    "quantity": 52,
    "weight": 1,
    "estDeliveryDate": "2011-04-19"
  },
  {
    "id": 2,
    "category": "Entertainment",
    "subCategory": "Music",
    "name": "Music Thingamajig",
    "latitude": 42.896974,
    "longitude": -74.374950,
    "quantity": 26,
    "weight": 3.37,
    "estDeliveryDate": "2021-06-01"
  },
  {
    "id": 3,
    "category": "Electronics",
    "subCategory": "Computer",
    "name": "Computer Mechanism",
    "latitude": 39.779492,
    "longitude": -86.132837,
    "quantity": 13,
    "weight": 7,
    "estDeliveryDate": "2016-07-19"
  },
  {
    "id": 4,
    "category": "Entertainment",
    "subCategory": "Movie",
    "name": "Movie Apparatus",
    "latitude": 30.762486,
    "longitude": -86.342683,
    "quantity": 30,
    "weight": 1.30,
    "estDeliveryDate": "2016-10-20"
  },
  {
    "id": 5,
    "category": "Beauty",
    "subCategory": "Hair Care",
    "name": "Hair Care Instrument",
    "latitude": 36.491753,
    "longitude": -86.599630,
    "quantity": 13,
    "weight": 2,
    "estDeliveryDate": "2019-07-20"
  },
  {
    "id": 6,
    "category": "Entertainment",
    "subCategory": "Movie",
    "name": "Movie Device",
    "latitude": 31.190826,
    "longitude": -98.741340,
    "quantity": 13,
    "weight": 3,
    "estDeliveryDate": "2011-04-21"
  },
  {
    "id": 7,
    "category": "Electronics",
    "subCategory": "Computer",
    "name": "Computer Equipment",
    "latitude": 38.893311,
    "longitude": -77.014647,
    "quantity": 32,
    "weight": 9.78,
    "estDeliveryDate": "2010-02-02"
  },
  {
    "id": 8,
    "category": "Home",
    "subCategory": "Dining",
    "name": "Dining Tool",
    "latitude": 42.409445,
    "longitude": -88.178220,
    "quantity": 45,
    "weight": 8,
    "estDeliveryDate": "2013-07-19"
  },
  {
    "id": 9,
    "category": "Activity",
    "subCategory": "Beach",
    "name": "Beach Doodad",
    "latitude": 36.897777,
    "longitude": -95.152490,
    "quantity": 11,
    "weight": 1.09,
    "estDeliveryDate": "2011-03-08"
  },
  {
    "id": 10,
    "category": "Beauty",
    "subCategory": "Hair Care",
    "name": "Hair Care Paraphernalia",
    "latitude": 34.413143,
    "longitude": -88.872920,
    "quantity": 32,
    "weight": 6.04,
    "estDeliveryDate": "2012-07-19"
  },
  {
    "id": 11,
    "category": "Beauty",
    "subCategory": "Makeup",
    "name": "Makeup Kit",
    "latitude": 45.681898,
    "longitude": -112.305480,
    "quantity": 30,
    "weight": 1.09,
    "estDeliveryDate": "2022-08-26"
  },
  {
    "id": 12,
    "category": "Health",
    "subCategory": "First Aid",
    "name": "First Aid Equipment",
    "latitude": 42.446396,
    "longitude": -71.459405,
    "quantity": 67,
    "weight": 16,
    "estDeliveryDate": "2015-01-01"
  },
  {
    "id": 13,
    "category": "Health",
    "subCategory": "Vitamin",
    "name": "Vitamin Contraption",
    "latitude": 27.958982,
    "longitude": -80.685910,
    "quantity": 11,
    "weight": 3,
    "estDeliveryDate": "2018-11-27"
  },
  {
    "id": 14,
    "category": "Activity",
    "subCategory": "Outdoors",
    "name": "Outdoors Kit",
    "latitude": 34.589477,
    "longitude": -112.447260,
    "quantity": 25,
    "weight": 1.93,
    "estDeliveryDate": "2022-12-13"
  },
  {
    "id": 15,
    "category": "Home",
    "subCategory": "Storage",
    "name": "Storage Gadget",
    "latitude": 36.931166,
    "longitude": -76.239720,
    "quantity": 13,
    "weight": 8,
    "estDeliveryDate": "2020-01-11"
  },
  {
    "id": 16,
    "category": "Pets",
    "subCategory": "Dog",
    "name": "Dog Rig",
    "latitude": 40.931187,
    "longitude": -75.914930,
    "quantity": 40,
    "weight": 2,
    "estDeliveryDate": "2014-11-13"
  },
  {
    "id": 17,
    "category": "Home",
    "subCategory": "Gardening",
    "name": "Gardening Contraption",
    "latitude": 39.103011,
    "longitude": -84.479870,
    "quantity": 23,
    "weight": 1,
    "estDeliveryDate": "2015-11-29"
  },
  {
    "id": 18,
    "category": "Electronics",
    "subCategory": "Camera",
    "name": "Camera Mechanism",
    "latitude": 45.354463,
    "longitude": -84.239560,
    "quantity": 18,
    "weight": 1.66,
    "estDeliveryDate": "2010-09-09"
  },
  {
    "id": 19,
    "category": "Activity",
    "subCategory": "Fitness",
    "name": "Fitness Mechanism",
    "latitude": 40.258972,
    "longitude": -76.859220,
    "quantity": 13,
    "weight": 7.86,
    "estDeliveryDate": "2012-08-22"
  },
  {
    "id": 20,
    "category": "Home",
    "subCategory": "Cooking",
    "name": "Cooking Thingamajig",
    "latitude": 48.555089,
    "longitude": -110.417690,
    "quantity": 27,
    "weight": 1,
    "estDeliveryDate": "2010-05-28"
  },
  {
    "id": 21,
    "category": "Home",
    "subCategory": "Gardening",
    "name": "Gardening Widget",
    "latitude": 41.672687,
    "longitude": -93.572173,
    "quantity": 14,
    "weight": 1,
    "estDeliveryDate": "2019-07-02"
  },
  {
    "id": 22,
    "category": "Entertainment",
    "subCategory": "Party",
    "name": "Party Equipment",
    "latitude": 44.041089,
    "longitude": -71.062700,
    "quantity": 32,
    "weight": 4.19,
    "estDeliveryDate": "2016-07-19"
  },
  {
    "id": 23,
    "category": "Clothing",
    "subCategory": "Baby",
    "name": "Baby Mechanism",
    "latitude": 37.172261,
    "longitude": -87.036770,
    "quantity": 18,
    "weight": 1,
    "estDeliveryDate": "2012-06-28"
  },
  {
    "id": 24,
    "category": "Home",
    "subCategory": "Home Improvement",
    "name": "Home Improvement Implement",
    "latitude": 43.797567,
    "longitude": -87.756640,
    "quantity": 32,
    "weight": 1,
    "estDeliveryDate": "2021-03-12"
  },
  {
    "id": 25,
    "category": "Beauty",
    "subCategory": "Skin Care",
    "name": "Skin Care Attachment",
    "latitude": 42.591109,
    "longitude": -76.192170,
    "quantity": 42,
    "weight": 2.45,
    "estDeliveryDate": "2014-05-17"
  },
  {
    "id": 26,
    "category": "Activity",
    "subCategory": "Camping",
    "name": "Camping Item",
    "latitude": 29.641132,
    "longitude": -98.308560,
    "quantity": 33,
    "weight": 1.25,
    "estDeliveryDate": "2019-08-22"
  },
  {
    "id": 27,
    "category": "Activity",
    "subCategory": "Outdoors",
    "name": "Outdoors Apparatus",
    "latitude": 35.407113,
    "longitude": -97.339960,
    "quantity": 21,
    "weight": 5.60,
    "estDeliveryDate": "2021-04-05"
  },
  {
    "id": 28,
    "category": "Beauty",
    "subCategory": "Makeup",
    "name": "Makeup Rig",
    "latitude": 31.369230,
    "longitude": -92.419836,
    "quantity": 33,
    "weight": 3.20,
    "estDeliveryDate": "2022-04-15"
  },
  {
    "id": 29,
    "category": "Entertainment",
    "subCategory": "Party",
    "name": "Party Attachment",
    "latitude": 35.511094,
    "longitude": -82.996070,
    "quantity": 28,
    "weight": 6.85,
    "estDeliveryDate": "2023-02-07"
  },
  {
    "id": 30,
    "category": "Electronics",
    "subCategory": "Camera",
    "name": "Camera Device",
    "latitude": 42.080964,
    "longitude": -73.778560,
    "quantity": 20,
    "weight": 3,
    "estDeliveryDate": "2018-05-21"
  },
  {
    "id": 31,
    "category": "Automotive",
    "subCategory": "Engine",
    "name": "Engine Gear",
    "latitude": 36.080707,
    "longitude": -80.024400,
    "quantity": 13,
    "weight": 1,
    "estDeliveryDate": "2015-02-05"
  },
  {
    "id": 32,
    "category": "Entertainment",
    "subCategory": "Movie",
    "name": "Movie Machine",
    "latitude": 32.767268,
    "longitude": -96.777626,
    "quantity": 39,
    "weight": 1.40,
    "estDeliveryDate": "2013-05-15"
  },
  {
    "id": 33,
    "category": "Clothing",
    "subCategory": "Kids",
    "name": "Kids Item",
    "latitude": 41.016159,
    "longitude": -80.615490,
    "quantity": 39,
    "weight": 1.55,
    "estDeliveryDate": "2015-04-06"
  },
  {
    "id": 34,
    "category": "Clothing",
    "subCategory": "Mens",
    "name": "Mens Item",
    "latitude": 37.545276,
    "longitude": -77.066640,
    "quantity": 26,
    "weight": 4.56,
    "estDeliveryDate": "2016-06-07"
  },
  {
    "id": 35,
    "category": "Health",
    "subCategory": "First Aid",
    "name": "First Aid Accessory",
    "latitude": 34.396301,
    "longitude": -91.662010,
    "quantity": 59,
    "weight": 2,
    "estDeliveryDate": "2010-08-06"
  },
  {
    "id": 36,
    "category": "Home",
    "subCategory": "Gardening",
    "name": "Gardening Gadget",
    "latitude": 41.175935,
    "longitude": -96.133940,
    "quantity": 29,
    "weight": 2.96,
    "estDeliveryDate": "2010-12-03"
  },
  {
    "id": 37,
    "category": "Electronics",
    "subCategory": "Phone",
    "name": "Phone Doodad",
    "latitude": 38.477752,
    "longitude": -78.863020,
    "quantity": 21,
    "weight": 3.72,
    "estDeliveryDate": "2011-09-27"
  },
  {
    "id": 38,
    "category": "Beauty",
    "subCategory": "Personal",
    "name": "Personal Machine",
    "latitude": 39.022256,
    "longitude": -74.936160,
    "quantity": 40,
    "weight": 46,
    "estDeliveryDate": "2014-12-17"
  },
  {
    "id": 39,
    "category": "Activity",
    "subCategory": "Sports",
    "name": "Sports Gizmo",
    "latitude": 36.478349,
    "longitude": -79.555180,
    "quantity": 22,
    "weight": 6,
    "estDeliveryDate": "2016-07-27"
  },
  {
    "id": 40,
    "category": "Home",
    "subCategory": "Furniture",
    "name": "Furniture Mechanism",
    "latitude": 42.101928,
    "longitude": -89.093690,
    "quantity": 17,
    "weight": 1,
    "estDeliveryDate": "2022-08-11"
  },
  {
    "id": 41,
    "category": "Clothing",
    "subCategory": "Jewelry",
    "name": "Jewelry Equipment",
    "latitude": 32.740900,
    "longitude": -117.244340,
    "quantity": 26,
    "weight": 5.74,
    "estDeliveryDate": "2022-06-16"
  },
  {
    "id": 42,
    "category": "Entertainment",
    "subCategory": "Movie",
    "name": "Movie Equipment",
    "latitude": 46.887187,
    "longitude": -124.107350,
    "quantity": 13,
    "weight": 8.67,
    "estDeliveryDate": "2020-05-01"
  },
  {
    "id": 43,
    "category": "Activity",
    "subCategory": "Fitness",
    "name": "Fitness Widget",
    "latitude": 37.638259,
    "longitude": -76.828580,
    "quantity": 28,
    "weight": 0,
    "estDeliveryDate": "2017-11-20"
  },
  {
    "id": 44,
    "category": "Entertainment",
    "subCategory": "Movie",
    "name": "Movie Implement",
    "latitude": 30.326374,
    "longitude": -97.771258,
    "quantity": 35,
    "weight": 1,
    "estDeliveryDate": "2011-03-11"
  },
  {
    "id": 45,
    "category": "Clothing",
    "subCategory": "Jewelry",
    "name": "Jewelry Instrument",
    "latitude": 41.412944,
    "longitude": -89.922360,
    "quantity": 60,
    "weight": 3.68,
    "estDeliveryDate": "2021-10-20"
  },
  {
    "id": 46,
    "category": "Activity",
    "subCategory": "Beach",
    "name": "Beach Gizmo",
    "latitude": 44.181193,
    "longitude": -123.386030,
    "quantity": 71,
    "weight": 1.93,
    "estDeliveryDate": "2010-02-05"
  },
  {
    "id": 47,
    "category": "Pets",
    "subCategory": "Dog",
    "name": "Dog Accessory",
    "latitude": 40.335398,
    "longitude": -104.914770,
    "quantity": 20,
    "weight": 4,
    "estDeliveryDate": "2012-12-18"
  },
  {
    "id": 48,
    "category": "Clothing",
    "subCategory": "Baby",
    "name": "Baby Attachment",
    "latitude": 41.700333,
    "longitude": -79.547880,
    "quantity": 17,
    "weight": 6,
    "estDeliveryDate": "2010-07-12"
  },
  {
    "id": 49,
    "category": "Home",
    "subCategory": "Furniture",
    "name": "Furniture Gadget",
    "latitude": 29.574930,
    "longitude": -95.132380,
    "quantity": 29,
    "weight": 5.12,
    "estDeliveryDate": "2016-07-26"
  },
  {
    "id": 50,
    "category": "Activity",
    "subCategory": "Biking",
    "name": "Biking Component",
    "latitude": 39.745377,
    "longitude": -75.582510,
    "quantity": 48,
    "weight": 1,
    "estDeliveryDate": "2021-01-12"
  },
  {
    "id": 51,
    "category": "Clothing",
    "subCategory": "Jewelry",
    "name": "Jewelry Equipment",
    "latitude": 21.460300,
    "longitude": -158.064460,
    "quantity": 25,
    "weight": 1,
    "estDeliveryDate": "2021-01-25"
  },
  {
    "id": 52,
    "category": "Health",
    "subCategory": "Vitamin",
    "name": "Vitamin Device",
    "latitude": 33.215454,
    "longitude": -84.254270,
    "quantity": 13,
    "weight": 6,
    "estDeliveryDate": "2014-02-23"
  },
  {
    "id": 53,
    "category": "Beauty",
    "subCategory": "Makeup",
    "name": "Makeup Mechanism",
    "latitude": 36.121607,
    "longitude": -114.925140,
    "quantity": 38,
    "weight": 1,
    "estDeliveryDate": "2022-04-18"
  },
  {
    "id": 54,
    "category": "Activity",
    "subCategory": "Sports",
    "name": "Sports Mechanism",
    "latitude": 41.677397,
    "longitude": -86.252506,
    "quantity": 32,
    "weight": 1.40,
    "estDeliveryDate": "2019-06-12"
  },
  {
    "id": 55,
    "category": "Home",
    "subCategory": "Kitchen",
    "name": "Kitchen Tool",
    "latitude": 41.329301,
    "longitude": -80.260420,
    "quantity": 38,
    "weight": 2,
    "estDeliveryDate": "2015-12-24"
  },
  {
    "id": 56,
    "category": "Activity",
    "subCategory": "Camping",
    "name": "Camping Attachment",
    "latitude": 46.724294,
    "longitude": -96.872800,
    "quantity": 14,
    "weight": 3.97,
    "estDeliveryDate": "2012-05-27"
  },
  {
    "id": 57,
    "category": "Clothing",
    "subCategory": "Jewelry",
    "name": "Jewelry Tool",
    "latitude": 27.532098,
    "longitude": -82.500900,
    "quantity": 39,
    "weight": 1,
    "estDeliveryDate": "2023-09-27"
  },
  {
    "id": 58,
    "category": "Beauty",
    "subCategory": "Hair Care",
    "name": "Hair Care Thingamajig",
    "latitude": 25.763044,
    "longitude": -80.359190,
    "quantity": 31,
    "weight": 1.13,
    "estDeliveryDate": "2016-12-23"
  },
  {
    "id": 59,
    "category": "Beauty",
    "subCategory": "Bath",
    "name": "Bath Attachment",
    "latitude": 37.558719,
    "longitude": -87.996320,
    "quantity": 19,
    "weight": 6.66,
    "estDeliveryDate": "2019-09-23"
  },
  {
    "id": 60,
    "category": "Clothing",
    "subCategory": "Mens",
    "name": "Mens Item",
    "latitude": 43.132474,
    "longitude": -77.603770,
    "quantity": 26,
    "weight": 1.61,
    "estDeliveryDate": "2020-02-07"
  },
  {
    "id": 61,
    "category": "Clothing",
    "subCategory": "Kids",
    "name": "Kids Apparatus",
    "latitude": 42.361485,
    "longitude": -71.060364,
    "quantity": 26,
    "weight": 2.91,
    "estDeliveryDate": "2022-08-01"
  },
  {
    "id": 62,
    "category": "Automotive",
    "subCategory": "Tire",
    "name": "Tire Attachment",
    "latitude": 42.670932,
    "longitude": -82.777540,
    "quantity": 12,
    "weight": 2,
    "estDeliveryDate": "2020-05-04"
  },
  {
    "id": 63,
    "category": "Entertainment",
    "subCategory": "Game",
    "name": "Game Doodad",
    "latitude": 42.634112,
    "longitude": -71.298490,
    "quantity": 27,
    "weight": 1.70,
    "estDeliveryDate": "2013-05-29"
  },
  {
    "id": 64,
    "category": "Health",
    "subCategory": "Vitamin",
    "name": "Vitamin Widget",
    "latitude": 37.653694,
    "longitude": -78.119020,
    "quantity": 30,
    "weight": 7.86,
    "estDeliveryDate": "2015-02-19"
  },
  {
    "id": 65,
    "category": "Home",
    "subCategory": "Cooking",
    "name": "Cooking Widget",
    "latitude": 38.147232,
    "longitude": -85.591690,
    "quantity": 96,
    "weight": 2.57,
    "estDeliveryDate": "2013-07-01"
  },
  {
    "id": 66,
    "category": "Home",
    "subCategory": "Dining",
    "name": "Dining Tool",
    "latitude": 38.608230,
    "longitude": -89.119630,
    "quantity": 27,
    "weight": 30,
    "estDeliveryDate": "2019-03-30"
  },
  {
    "id": 67,
    "category": "Health",
    "subCategory": "Medicine",
    "name": "Medicine Machine",
    "latitude": 33.906914,
    "longitude": -118.083390,
    "quantity": 41,
    "weight": 2,
    "estDeliveryDate": "2016-05-07"
  },
  {
    "id": 68,
    "category": "Activity",
    "subCategory": "Fitness",
    "name": "Fitness Machine",
    "latitude": 31.694842,
    "longitude": -106.299987,
    "quantity": 21,
    "weight": 1.65,
    "estDeliveryDate": "2021-07-01"
  },
  {
    "id": 69,
    "category": "Clothing",
    "subCategory": "Kids",
    "name": "Kids Equipment",
    "latitude": 38.335675,
    "longitude": -89.048670,
    "quantity": 50,
    "weight": 3,
    "estDeliveryDate": "2017-06-28"
  },
  {
    "id": 70,
    "category": "Automotive",
    "subCategory": "Car",
    "name": "Car Contraption",
    "latitude": 40.012714,
    "longitude": -82.971270,
    "quantity": 31,
    "weight": 3,
    "estDeliveryDate": "2015-01-12"
  },
  {
    "id": 71,
    "category": "Health",
    "subCategory": "Vitamin",
    "name": "Vitamin Gadget",
    "latitude": 32.924798,
    "longitude": -93.452950,
    "quantity": 14,
    "weight": 4,
    "estDeliveryDate": "2011-09-03"
  },
  {
    "id": 72,
    "category": "Entertainment",
    "subCategory": "Party",
    "name": "Party Doodad",
    "latitude": 32.382771,
    "longitude": -94.579450,
    "quantity": 39,
    "weight": 4,
    "estDeliveryDate": "2021-11-05"
  },
  {
    "id": 73,
    "category": "Entertainment",
    "subCategory": "Book",
    "name": "Book Paraphernalia",
    "latitude": 37.442703,
    "longitude": -91.020770,
    "quantity": 20,
    "weight": 1.91,
    "estDeliveryDate": "2019-12-19"
  },
  {
    "id": 74,
    "category": "Clothing",
    "subCategory": "Baby",
    "name": "Baby Item",
    "latitude": 41.744689,
    "longitude": -90.443920,
    "quantity": 14,
    "weight": 2.83,
    "estDeliveryDate": "2021-02-28"
  },
  {
    "id": 75,
    "category": "Activity",
    "subCategory": "Camping",
    "name": "Camping Apparatus",
    "latitude": 39.642572,
    "longitude": -105.368120,
    "quantity": 27,
    "weight": 1.61,
    "estDeliveryDate": "2011-07-28"
  },
  {
    "id": 76,
    "category": "Home",
    "subCategory": "Kitchen",
    "name": "Kitchen Component",
    "latitude": 45.328802,
    "longitude": -94.325280,
    "quantity": 30,
    "weight": 6,
    "estDeliveryDate": "2022-07-16"
  },
  {
    "id": 77,
    "category": "Home",
    "subCategory": "Gardening",
    "name": "Gardening Component",
    "latitude": 37.527237,
    "longitude": -121.967900,
    "quantity": 44,
    "weight": 1,
    "estDeliveryDate": "2012-05-28"
  },
  {
    "id": 78,
    "category": "Home",
    "subCategory": "Gardening",
    "name": "Gardening Machine",
    "latitude": 60.582127,
    "longitude": -165.256450,
    "quantity": 35,
    "weight": 1,
    "estDeliveryDate": "2018-11-12"
  },
  {
    "id": 79,
    "category": "Automotive",
    "subCategory": "Engine",
    "name": "Engine Apparatus",
    "latitude": 40.673728,
    "longitude": -93.128100,
    "quantity": 23,
    "weight": 1,
    "estDeliveryDate": "2017-02-13"
  },
  {
    "id": 80,
    "category": "Activity",
    "subCategory": "Fitness",
    "name": "Fitness Doodad",
    "latitude": 30.032997,
    "longitude": -89.882564,
    "quantity": 26,
    "weight": 5.38,
    "estDeliveryDate": "2018-12-11"
  },
  {
    "id": 81,
    "category": "Activity",
    "subCategory": "Biking",
    "name": "Biking Accessory",
    "latitude": 42.998998,
    "longitude": -84.577040,
    "quantity": 32,
    "weight": 2,
    "estDeliveryDate": "2013-05-06"
  },
  {
    "id": 82,
    "category": "Clothing",
    "subCategory": "Jewelry",
    "name": "Jewelry Thingamajig",
    "latitude": 45.160264,
    "longitude": -85.266990,
    "quantity": 40,
    "weight": 0.00,
    "estDeliveryDate": "2022-01-11"
  },
  {
    "id": 83,
    "category": "Pets",
    "subCategory": "Aquarium",
    "name": "Aquarium Gadget",
    "latitude": 40.309087,
    "longitude": -78.900690,
    "quantity": 31,
    "weight": 39,
    "estDeliveryDate": "2012-05-27"
  },
  {
    "id": 84,
    "category": "Home",
    "subCategory": "Storage",
    "name": "Storage Attachment",
    "latitude": 37.734730,
    "longitude": -89.856609,
    "quantity": 42,
    "weight": 1,
    "estDeliveryDate": "2023-07-07"
  },
  {
    "id": 85,
    "category": "Entertainment",
    "subCategory": "Toy",
    "name": "Toy Instrument",
    "latitude": 42.221176,
    "longitude": -91.193350,
    "quantity": 37,
    "weight": 1,
    "estDeliveryDate": "2016-08-22"
  },
  {
    "id": 86,
    "category": "Clothing",
    "subCategory": "Mens",
    "name": "Mens Mechanism",
    "latitude": 39.035028,
    "longitude": -77.199950,
    "quantity": 35,
    "weight": 2.87,
    "estDeliveryDate": "2011-12-20"
  },
  {
    "id": 87,
    "category": "Clothing",
    "subCategory": "Jewelry",
    "name": "Jewelry Apparatus",
    "latitude": 39.734279,
    "longitude": -75.663100,
    "quantity": 41,
    "weight": 1,
    "estDeliveryDate": "2010-08-31"
  },
  {
    "id": 88,
    "category": "Activity",
    "subCategory": "Outdoors",
    "name": "Outdoors Supplies",
    "latitude": 37.555405,
    "longitude": -89.800680,
    "quantity": 62,
    "weight": 5.10,
    "estDeliveryDate": "2014-04-05"
  },
  {
    "id": 89,
    "category": "Beauty",
    "subCategory": "Hair Care",
    "name": "Hair Care Machine",
    "latitude": 40.733243,
    "longitude": -82.519750,
    "quantity": 41,
    "weight": 5,
    "estDeliveryDate": "2010-04-28"
  },
  {
    "id": 90,
    "category": "Activity",
    "subCategory": "Beach",
    "name": "Beach Widget",
    "latitude": 27.980380,
    "longitude": -81.755310,
    "quantity": 21,
    "weight": 1,
    "estDeliveryDate": "2014-10-06"
  },
  {
    "id": 91,
    "category": "Automotive",
    "subCategory": "Truck",
    "name": "Truck Gear",
    "latitude": 37.524246,
    "longitude": -77.493157,
    "quantity": 36,
    "weight": 1,
    "estDeliveryDate": "2021-02-24"
  },
  {
    "id": 92,
    "category": "Pets",
    "subCategory": "Dog",
    "name": "Dog Device",
    "latitude": 48.483212,
    "longitude": -108.722080,
    "quantity": 11,
    "weight": 7,
    "estDeliveryDate": "2010-12-18"
  },
  {
    "id": 93,
    "category": "Activity",
    "subCategory": "Beach",
    "name": "Beach Device",
    "latitude": 41.022387,
    "longitude": -81.877500,
    "quantity": 21,
    "weight": 1,
    "estDeliveryDate": "2012-10-20"
  },
  {
    "id": 94,
    "category": "Home",
    "subCategory": "Storage",
    "name": "Storage Kit",
    "latitude": 29.851666,
    "longitude": -98.729320,
    "quantity": 20,
    "weight": 1,
    "estDeliveryDate": "2014-10-26"
  },
  {
    "id": 95,
    "category": "Clothing",
    "subCategory": "Kids",
    "name": "Kids Whatchamacallit",
    "latitude": 37.052970,
    "longitude": -121.949418,
    "quantity": 17,
    "weight": 2,
    "estDeliveryDate": "2018-04-18"
  },
  {
    "id": 96,
    "category": "Home",
    "subCategory": "Gardening",
    "name": "Gardening Apparatus",
    "latitude": 40.439688,
    "longitude": -87.890160,
    "quantity": 30,
    "weight": 8,
    "estDeliveryDate": "2019-11-23"
  },
  {
    "id": 97,
    "category": "Clothing",
    "subCategory": "Baby",
    "name": "Baby Equipment",
    "latitude": 39.564499,
    "longitude": -75.597047,
    "quantity": 13,
    "weight": 4,
    "estDeliveryDate": "2021-01-24"
  },
  {
    "id": 98,
    "category": "Beauty",
    "subCategory": "Hair Care",
    "name": "Hair Care Mechanism",
    "latitude": 47.685919,
    "longitude": -122.378380,
    "quantity": 21,
    "weight": 1,
    "estDeliveryDate": "2012-03-27"
  },
  {
    "id": 99,
    "category": "Beauty",
    "subCategory": "Makeup",
    "name": "Makeup Whatchamacallit",
    "latitude": 42.824095,
    "longitude": -82.665220,
    "quantity": 13,
    "weight": 1,
    "estDeliveryDate": "2010-05-22"
  },
  {
    "id": 100,
    "category": "Automotive",
    "subCategory": "Car",
    "name": "Car Supplies",
    "latitude": 44.422975,
    "longitude": -93.000890,
    "quantity": 10,
    "weight": 1.36,
    "estDeliveryDate": "2018-12-26"
  },
  {
    "id": 101,
    "category": "Home",
    "subCategory": "Home Improvement",
    "name": "Home Improvement Doodad",
    "latitude": 36.272262,
    "longitude": -109.175160,
    "quantity": 16,
    "weight": 2.85,
    "estDeliveryDate": "2013-06-27"
  },
  {
    "id": 102,
    "category": "Home",
    "subCategory": "Furniture",
    "name": "Furniture Kit",
    "latitude": 39.218276,
    "longitude": -81.497865,
    "quantity": 18,
    "weight": 1.08,
    "estDeliveryDate": "2022-03-28"
  },
  {
    "id": 103,
    "category": "Clothing",
    "subCategory": "Jewelry",
    "name": "Jewelry Doodad",
    "latitude": 39.880826,
    "longitude": -84.023640,
    "quantity": 38,
    "weight": 6,
    "estDeliveryDate": "2019-02-17"
  },
  {
    "id": 104,
    "category": "Automotive",
    "subCategory": "Car",
    "name": "Car Gizmo",
    "latitude": 40.400172,
    "longitude": -95.696650,
    "quantity": 25,
    "weight": 2,
    "estDeliveryDate": "2022-12-14"
  },
  {
    "id": 105,
    "category": "Clothing",
    "subCategory": "Jewelry",
    "name": "Jewelry Accessory",
    "latitude": 39.932084,
    "longitude": -79.652170,
    "quantity": 79,
    "weight": 7,
    "estDeliveryDate": "2020-11-29"
  },
  {
    "id": 106,
    "category": "Activity",
    "subCategory": "Biking",
    "name": "Biking Instrument",
    "latitude": 34.297754,
    "longitude": -91.004030,
    "quantity": 10,
    "weight": 7,
    "estDeliveryDate": "2017-01-10"
  },
  {
    "id": 107,
    "category": "Electronics",
    "subCategory": "Computer",
    "name": "Computer Component",
    "latitude": 33.876452,
    "longitude": -112.088337,
    "quantity": 28,
    "weight": 7,
    "estDeliveryDate": "2015-03-31"
  },
  {
    "id": 108,
    "category": "Beauty",
    "subCategory": "Makeup",
    "name": "Makeup Tool",
    "latitude": 41.801302,
    "longitude": -78.444190,
    "quantity": 36,
    "weight": 9.46,
    "estDeliveryDate": "2010-07-25"
  },
  {
    "id": 109,
    "category": "Activity",
    "subCategory": "Camping",
    "name": "Camping Supplies",
    "latitude": 34.888237,
    "longitude": -81.969020,
    "quantity": 66,
    "weight": 2,
    "estDeliveryDate": "2023-03-26"
  },
  {
    "id": 110,
    "category": "Electronics",
    "subCategory": "Technology",
    "name": "Technology Gadget",
    "latitude": 27.382196,
    "longitude": -80.409024,
    "quantity": 35,
    "weight": 5.85,
    "estDeliveryDate": "2016-09-15"
  },
  {
    "id": 111,
    "category": "Home",
    "subCategory": "Home Improvement",
    "name": "Home Improvement Rig",
    "latitude": 41.602989,
    "longitude": -93.632370,
    "quantity": 32,
    "weight": 1.10,
    "estDeliveryDate": "2017-12-03"
  },
  {
    "id": 112,
    "category": "Pets",
    "subCategory": "Cat",
    "name": "Cat Apparatus",
    "latitude": 42.169323,
    "longitude": -121.702980,
    "quantity": 58,
    "weight": 1.47,
    "estDeliveryDate": "2015-09-27"
  },
  {
    "id": 113,
    "category": "Home",
    "subCategory": "Gardening",
    "name": "Gardening Machine",
    "latitude": 37.722279,
    "longitude": -122.157020,
    "quantity": 30,
    "weight": 23,
    "estDeliveryDate": "2014-04-18"
  },
  {
    "id": 114,
    "category": "Entertainment",
    "subCategory": "Game",
    "name": "Game Device",
    "latitude": 38.833563,
    "longitude": -76.877743,
    "quantity": 17,
    "weight": 3.26,
    "estDeliveryDate": "2013-05-31"
  },
  {
    "id": 115,
    "category": "Home",
    "subCategory": "Dining",
    "name": "Dining Instrument",
    "latitude": 35.702159,
    "longitude": -96.889610,
    "quantity": 16,
    "weight": 1,
    "estDeliveryDate": "2019-02-04"
  },
  {
    "id": 116,
    "category": "Clothing",
    "subCategory": "Mens",
    "name": "Mens Machine",
    "latitude": 36.557892,
    "longitude": -81.426350,
    "quantity": 11,
    "weight": 4,
    "estDeliveryDate": "2012-11-03"
  },
  {
    "id": 117,
    "category": "Activity",
    "subCategory": "Fitness",
    "name": "Fitness Attachment",
    "latitude": 42.280019,
    "longitude": -89.033470,
    "quantity": 35,
    "weight": 1.85,
    "estDeliveryDate": "2012-03-07"
  },
  {
    "id": 118,
    "category": "Electronics",
    "subCategory": "Technology",
    "name": "Technology Device",
    "latitude": 35.812635,
    "longitude": -80.557240,
    "quantity": 94,
    "weight": 4.63,
    "estDeliveryDate": "2018-10-20"
  },
  {
    "id": 119,
    "category": "Entertainment",
    "subCategory": "Game",
    "name": "Game Thingamajig",
    "latitude": 36.353928,
    "longitude": -88.841910,
    "quantity": 92,
    "weight": 7,
    "estDeliveryDate": "2016-07-28"
  },
  {
    "id": 120,
    "category": "Home",
    "subCategory": "Bedding",
    "name": "Bedding Instrument",
    "latitude": 41.296198,
    "longitude": -96.110270,
    "quantity": 30,
    "weight": 1.54,
    "estDeliveryDate": "2021-09-29"
  },
  {
    "id": 121,
    "category": "Home",
    "subCategory": "Dining",
    "name": "Dining Gizmo",
    "latitude": 32.624796,
    "longitude": -103.597991,
    "quantity": 56,
    "weight": 6.15,
    "estDeliveryDate": "2018-02-03"
  },
  {
    "id": 122,
    "category": "Health",
    "subCategory": "Nutrition",
    "name": "Nutrition Apparatus",
    "latitude": 42.973263,
    "longitude": -83.701420,
    "quantity": 22,
    "weight": 2.00,
    "estDeliveryDate": "2010-07-02"
  },
  {
    "id": 123,
    "category": "Health",
    "subCategory": "Nutrition",
    "name": "Nutrition Whatchamacallit",
    "latitude": 39.265740,
    "longitude": -76.997350,
    "quantity": 66,
    "weight": 1.86,
    "estDeliveryDate": "2018-05-03"
  },
  {
    "id": 124,
    "category": "Home",
    "subCategory": "Cleaning",
    "name": "Cleaning Paraphernalia",
    "latitude": 40.430500,
    "longitude": -77.584300,
    "quantity": 23,
    "weight": 6.03,
    "estDeliveryDate": "2010-07-31"
  },
  {
    "id": 125,
    "category": "Home",
    "subCategory": "Home Improvement",
    "name": "Home Improvement Kit",
    "latitude": 40.153557,
    "longitude": -90.352550,
    "quantity": 29,
    "weight": 7.74,
    "estDeliveryDate": "2013-11-17"
  },
  {
    "id": 126,
    "category": "Health",
    "subCategory": "First Aid",
    "name": "First Aid Paraphernalia",
    "latitude": 29.549455,
    "longitude": -95.819010,
    "quantity": 17,
    "weight": 6.45,
    "estDeliveryDate": "2021-01-07"
  },
  {
    "id": 127,
    "category": "Entertainment",
    "subCategory": "Game",
    "name": "Game Gear",
    "latitude": 42.357549,
    "longitude": -93.097500,
    "quantity": 39,
    "weight": 2.76,
    "estDeliveryDate": "2016-04-18"
  },
  {
    "id": 128,
    "category": "Home",
    "subCategory": "Furniture",
    "name": "Furniture Instrument",
    "latitude": 34.739023,
    "longitude": -88.926290,
    "quantity": 40,
    "weight": 5.88,
    "estDeliveryDate": "2010-05-26"
  },
  {
    "id": 129,
    "category": "Electronics",
    "subCategory": "Technology",
    "name": "Technology Instrument",
    "latitude": 44.936423,
    "longitude": -93.628680,
    "quantity": 32,
    "weight": 2,
    "estDeliveryDate": "2019-06-02"
  },
  {
    "id": 130,
    "category": "Beauty",
    "subCategory": "Personal",
    "name": "Personal Equipment",
    "latitude": 36.209271,
    "longitude": -85.007570,
    "quantity": 32,
    "weight": 1,
    "estDeliveryDate": "2015-06-19"
  },
  {
    "id": 131,
    "category": "Beauty",
    "subCategory": "Hair Care",
    "name": "Hair Care Attachment",
    "latitude": 32.863720,
    "longitude": -96.934998,
    "quantity": 30,
    "weight": 8,
    "estDeliveryDate": "2016-08-14"
  },
  {
    "id": 132,
    "category": "Electronics",
    "subCategory": "Technology",
    "name": "Technology Attachment",
    "latitude": 45.646145,
    "longitude": -92.019230,
    "quantity": 35,
    "weight": 2.14,
    "estDeliveryDate": "2011-10-17"
  },
  {
    "id": 133,
    "category": "Health",
    "subCategory": "Nutrition",
    "name": "Nutrition Thingamajig",
    "latitude": 28.737085,
    "longitude": -97.014600,
    "quantity": 68,
    "weight": 3,
    "estDeliveryDate": "2018-03-08"
  },
  {
    "id": 134,
    "category": "Health",
    "subCategory": "Nutrition",
    "name": "Nutrition Mechanism",
    "latitude": 31.694842,
    "longitude": -106.299987,
    "quantity": 32,
    "weight": 4,
    "estDeliveryDate": "2020-01-16"
  },
  {
    "id": 135,
    "category": "Home",
    "subCategory": "Kitchen",
    "name": "Kitchen Instrument",
    "latitude": 40.547399,
    "longitude": -91.438640,
    "quantity": 40,
    "weight": 2,
    "estDeliveryDate": "2011-05-12"
  },
  {
    "id": 136,
    "category": "Activity",
    "subCategory": "Fitness",
    "name": "Fitness Mechanism",
    "latitude": 38.060956,
    "longitude": -120.392160,
    "quantity": 44,
    "weight": 4,
    "estDeliveryDate": "2017-03-29"
  },
  {
    "id": 137,
    "category": "Electronics",
    "subCategory": "Camera",
    "name": "Camera Kit",
    "latitude": 39.056200,
    "longitude": -95.675470,
    "quantity": 18,
    "weight": 1,
    "estDeliveryDate": "2014-06-22"
  },
  {
    "id": 138,
    "category": "Activity",
    "subCategory": "Sports",
    "name": "Sports Mechanism",
    "latitude": 64.737306,
    "longitude": -155.487690,
    "quantity": 13,
    "weight": 2.88,
    "estDeliveryDate": "2017-06-29"
  },
  {
    "id": 139,
    "category": "Entertainment",
    "subCategory": "Party",
    "name": "Party Doodad",
    "latitude": 42.505818,
    "longitude": -96.499259,
    "quantity": 77,
    "weight": 1.02,
    "estDeliveryDate": "2018-09-06"
  },
  {
    "id": 140,
    "category": "Automotive",
    "subCategory": "Car",
    "name": "Car Item",
    "latitude": 34.478797,
    "longitude": -118.652550,
    "quantity": 23,
    "weight": 6,
    "estDeliveryDate": "2015-05-13"
  },
  {
    "id": 141,
    "category": "Beauty",
    "subCategory": "Makeup",
    "name": "Makeup Thingamajig",
    "latitude": 39.927312,
    "longitude": -79.887680,
    "quantity": 39,
    "weight": 1,
    "estDeliveryDate": "2017-02-22"
  },
  {
    "id": 142,
    "category": "Entertainment",
    "subCategory": "Party",
    "name": "Party Device",
    "latitude": 35.372730,
    "longitude": -83.207720,
    "quantity": 14,
    "weight": 1,
    "estDeliveryDate": "2023-10-01"
  },
  {
    "id": 143,
    "category": "Entertainment",
    "subCategory": "Movie",
    "name": "Movie Gadget",
    "latitude": 41.144329,
    "longitude": -89.088150,
    "quantity": 30,
    "weight": 1,
    "estDeliveryDate": "2018-09-06"
  },
  {
    "id": 144,
    "category": "Entertainment",
    "subCategory": "Party",
    "name": "Party Device",
    "latitude": 43.289041,
    "longitude": -93.208380,
    "quantity": 36,
    "weight": 4,
    "estDeliveryDate": "2023-09-26"
  },
  {
    "id": 145,
    "category": "Beauty",
    "subCategory": "Bath",
    "name": "Bath Attachment",
    "latitude": 39.260862,
    "longitude": -89.926068,
    "quantity": 14,
    "weight": 9,
    "estDeliveryDate": "2023-03-24"
  },
  {
    "id": 146,
    "category": "Entertainment",
    "subCategory": "Party",
    "name": "Party Paraphernalia",
    "latitude": 40.044920,
    "longitude": -74.589160,
    "quantity": 31,
    "weight": 1,
    "estDeliveryDate": "2015-12-05"
  },
  {
    "id": 147,
    "category": "Pets",
    "subCategory": "Aquarium",
    "name": "Aquarium Doodad",
    "latitude": 39.695269,
    "longitude": -104.784390,
    "quantity": 24,
    "weight": 2.53,
    "estDeliveryDate": "2015-11-23"
  },
  {
    "id": 148,
    "category": "Home",
    "subCategory": "Gardening",
    "name": "Gardening Implement",
    "latitude": 39.944564,
    "longitude": -82.980850,
    "quantity": 13,
    "weight": 3.14,
    "estDeliveryDate": "2021-12-11"
  },
  {
    "id": 149,
    "category": "Pets",
    "subCategory": "Dog",
    "name": "Dog Instrument",
    "latitude": 32.223810,
    "longitude": -86.397980,
    "quantity": 21,
    "weight": 3.76,
    "estDeliveryDate": "2017-07-01"
  },
  {
    "id": 150,
    "category": "Home",
    "subCategory": "Gardening",
    "name": "Gardening Gear",
    "latitude": 36.266266,
    "longitude": -115.286560,
    "quantity": 32,
    "weight": 5,
    "estDeliveryDate": "2020-02-20"
  },
  {
    "id": 151,
    "category": "Activity",
    "subCategory": "Fitness",
    "name": "Fitness Widget",
    "latitude": 31.694842,
    "longitude": -106.299987,
    "quantity": 41,
    "weight": 45,
    "estDeliveryDate": "2012-07-08"
  },
  {
    "id": 152,
    "category": "Beauty",
    "subCategory": "Makeup",
    "name": "Makeup Whatchamacallit",
    "latitude": 42.849957,
    "longitude": -72.623280,
    "quantity": 33,
    "weight": 5.89,
    "estDeliveryDate": "2023-09-24"
  },
  {
    "id": 153,
    "category": "Entertainment",
    "subCategory": "Movie",
    "name": "Movie Thingamajig",
    "latitude": 36.197152,
    "longitude": -105.107270,
    "quantity": 36,
    "weight": 4.90,
    "estDeliveryDate": "2013-06-09"
  },
  {
    "id": 154,
    "category": "Clothing",
    "subCategory": "Jewelry",
    "name": "Jewelry Gear",
    "latitude": 41.283012,
    "longitude": -78.429190,
    "quantity": 19,
    "weight": 6,
    "estDeliveryDate": "2011-05-08"
  },
  {
    "id": 155,
    "category": "Health",
    "subCategory": "Medicine",
    "name": "Medicine Attachment",
    "latitude": 42.343787,
    "longitude": -83.058790,
    "quantity": 19,
    "weight": 40,
    "estDeliveryDate": "2022-10-31"
  },
  {
    "id": 156,
    "category": "Activity",
    "subCategory": "Biking",
    "name": "Biking Instrument",
    "latitude": 48.605472,
    "longitude": -113.885050,
    "quantity": 41,
    "weight": 2.34,
    "estDeliveryDate": "2012-11-25"
  },
  {
    "id": 157,
    "category": "Home",
    "subCategory": "Storage",
    "name": "Storage Instrument",
    "latitude": 33.016928,
    "longitude": -116.846046,
    "quantity": 15,
    "weight": 2.74,
    "estDeliveryDate": "2012-09-12"
  },
  {
    "id": 158,
    "category": "Beauty",
    "subCategory": "Hair Care",
    "name": "Hair Care Accessory",
    "latitude": 45.385642,
    "longitude": -122.592720,
    "quantity": 21,
    "weight": 4.18,
    "estDeliveryDate": "2023-05-12"
  },
  {
    "id": 159,
    "category": "Pets",
    "subCategory": "Aquarium",
    "name": "Aquarium Machine",
    "latitude": 44.026843,
    "longitude": -91.451300,
    "quantity": 32,
    "weight": 8,
    "estDeliveryDate": "2011-03-26"
  },
  {
    "id": 160,
    "category": "Activity",
    "subCategory": "Camping",
    "name": "Camping Implement",
    "latitude": 41.530131,
    "longitude": -71.284066,
    "quantity": 41,
    "weight": 2.18,
    "estDeliveryDate": "2016-04-09"
  },
  {
    "id": 161,
    "category": "Clothing",
    "subCategory": "Womens",
    "name": "Womens Gear",
    "latitude": 40.993030,
    "longitude": -75.960090,
    "quantity": 45,
    "weight": 4,
    "estDeliveryDate": "2018-12-16"
  },
  {
    "id": 162,
    "category": "Electronics",
    "subCategory": "Camera",
    "name": "Camera Gear",
    "latitude": 34.954638,
    "longitude": -83.864840,
    "quantity": 25,
    "weight": 1,
    "estDeliveryDate": "2020-07-02"
  },
  {
    "id": 163,
    "category": "Clothing",
    "subCategory": "Jewelry",
    "name": "Jewelry Equipment",
    "latitude": 39.862128,
    "longitude": -81.111390,
    "quantity": 23,
    "weight": 2.56,
    "estDeliveryDate": "2011-07-03"
  },
  {
    "id": 164,
    "category": "Beauty",
    "subCategory": "Bath",
    "name": "Bath Supplies",
    "latitude": 37.026172,
    "longitude": -96.178450,
    "quantity": 42,
    "weight": 1.21,
    "estDeliveryDate": "2011-05-07"
  },
  {
    "id": 165,
    "category": "Activity",
    "subCategory": "Outdoors",
    "name": "Outdoors Paraphernalia",
    "latitude": 40.780751,
    "longitude": -73.977182,
    "quantity": 27,
    "weight": 1,
    "estDeliveryDate": "2023-09-29"
  },
  {
    "id": 166,
    "category": "Automotive",
    "subCategory": "Truck",
    "name": "Truck Mechanism",
    "latitude": 47.971295,
    "longitude": -100.768410,
    "quantity": 12,
    "weight": 1,
    "estDeliveryDate": "2012-01-14"
  },
  {
    "id": 167,
    "category": "Clothing",
    "subCategory": "Mens",
    "name": "Mens Attachment",
    "latitude": 37.311333,
    "longitude": -89.083056,
    "quantity": 41,
    "weight": 7,
    "estDeliveryDate": "2016-04-11"
  },
  {
    "id": 168,
    "category": "Electronics",
    "subCategory": "Camera",
    "name": "Camera Gizmo",
    "latitude": 39.537979,
    "longitude": -118.343592,
    "quantity": 29,
    "weight": 4.56,
    "estDeliveryDate": "2015-08-28"
  },
  {
    "id": 169,
    "category": "Home",
    "subCategory": "Home Improvement",
    "name": "Home Improvement Item",
    "latitude": 33.118259,
    "longitude": -87.135480,
    "quantity": 26,
    "weight": 4,
    "estDeliveryDate": "2016-12-22"
  },
  {
    "id": 170,
    "category": "Activity",
    "subCategory": "Biking",
    "name": "Biking Thingamajig",
    "latitude": 46.429205,
    "longitude": -104.940360,
    "quantity": 15,
    "weight": 3,
    "estDeliveryDate": "2020-11-25"
  },
  {
    "id": 171,
    "category": "Clothing",
    "subCategory": "Jewelry",
    "name": "Jewelry Mechanism",
    "latitude": 42.428818,
    "longitude": -75.624590,
    "quantity": 21,
    "weight": 7,
    "estDeliveryDate": "2021-04-13"
  },
  {
    "id": 172,
    "category": "Beauty",
    "subCategory": "Hair Care",
    "name": "Hair Care Instrument",
    "latitude": 36.237128,
    "longitude": -90.048660,
    "quantity": 83,
    "weight": 1,
    "estDeliveryDate": "2017-07-20"
  },
  {
    "id": 173,
    "category": "Activity",
    "subCategory": "Sports",
    "name": "Sports Equipment",
    "latitude": 33.596823,
    "longitude": -112.323640,
    "quantity": 11,
    "weight": 3,
    "estDeliveryDate": "2012-07-20"
  },
  {
    "id": 174,
    "category": "Pets",
    "subCategory": "Dog",
    "name": "Dog Device",
    "latitude": 44.446885,
    "longitude": -95.772810,
    "quantity": 44,
    "weight": 7,
    "estDeliveryDate": "2020-04-09"
  },
  {
    "id": 175,
    "category": "Clothing",
    "subCategory": "Baby",
    "name": "Baby Tool",
    "latitude": 38.796477,
    "longitude": -76.304370,
    "quantity": 23,
    "weight": 5.27,
    "estDeliveryDate": "2017-01-08"
  },
  {
    "id": 176,
    "category": "Activity",
    "subCategory": "Fitness",
    "name": "Fitness Gizmo",
    "latitude": 33.786594,
    "longitude": -118.298662,
    "quantity": 59,
    "weight": 2.96,
    "estDeliveryDate": "2015-11-25"
  },
  {
    "id": 177,
    "category": "Home",
    "subCategory": "Furniture",
    "name": "Furniture Widget",
    "latitude": 41.909808,
    "longitude": -76.044730,
    "quantity": 67,
    "weight": 9,
    "estDeliveryDate": "2017-02-15"
  },
  {
    "id": 178,
    "category": "Activity",
    "subCategory": "Swimming",
    "name": "Swimming Tool",
    "latitude": 43.319027,
    "longitude": -77.919910,
    "quantity": 19,
    "weight": 9.04,
    "estDeliveryDate": "2015-04-10"
  },
  {
    "id": 179,
    "category": "Electronics",
    "subCategory": "Computer",
    "name": "Computer Accessory",
    "latitude": 37.527341,
    "longitude": -89.927350,
    "quantity": 17,
    "weight": 24,
    "estDeliveryDate": "2019-09-11"
  },
  {
    "id": 180,
    "category": "Clothing",
    "subCategory": "Womens",
    "name": "Womens Kit",
    "latitude": 36.362617,
    "longitude": -106.025230,
    "quantity": 10,
    "weight": 3.66,
    "estDeliveryDate": "2014-07-22"
  },
  {
    "id": 181,
    "category": "Beauty",
    "subCategory": "Skin Care",
    "name": "Skin Care Rig",
    "latitude": 36.140473,
    "longitude": -85.910720,
    "quantity": 39,
    "weight": 66,
    "estDeliveryDate": "2021-03-24"
  },
  {
    "id": 182,
    "category": "Pets",
    "subCategory": "Aquarium",
    "name": "Aquarium Gear",
    "latitude": 40.571302,
    "longitude": -74.637400,
    "quantity": 26,
    "weight": 9.84,
    "estDeliveryDate": "2012-08-24"
  },
  {
    "id": 183,
    "category": "Automotive",
    "subCategory": "Car",
    "name": "Car Contraption",
    "latitude": 40.108585,
    "longitude": -79.381060,
    "quantity": 28,
    "weight": 1,
    "estDeliveryDate": "2010-09-28"
  },
  {
    "id": 184,
    "category": "Beauty",
    "subCategory": "Hair Care",
    "name": "Hair Care Apparatus",
    "latitude": 37.207390,
    "longitude": -90.388290,
    "quantity": 25,
    "weight": 1.22,
    "estDeliveryDate": "2020-10-13"
  },
  {
    "id": 185,
    "category": "Automotive",
    "subCategory": "Tire",
    "name": "Tire Doodad",
    "latitude": 41.890875,
    "longitude": -110.406870,
    "quantity": 25,
    "weight": 1.11,
    "estDeliveryDate": "2020-03-07"
  },
  {
    "id": 186,
    "category": "Beauty",
    "subCategory": "Makeup",
    "name": "Makeup Thingamajig",
    "latitude": 36.714663,
    "longitude": -80.826020,
    "quantity": 20,
    "weight": 7.44,
    "estDeliveryDate": "2012-10-27"
  },
  {
    "id": 187,
    "category": "Home",
    "subCategory": "Cleaning",
    "name": "Cleaning Tool",
    "latitude": 41.406407,
    "longitude": -103.007110,
    "quantity": 12,
    "weight": 2,
    "estDeliveryDate": "2013-06-19"
  },
  {
    "id": 188,
    "category": "Health",
    "subCategory": "Nutrition",
    "name": "Nutrition Gear",
    "latitude": 37.517388,
    "longitude": -86.684600,
    "quantity": 24,
    "weight": 3,
    "estDeliveryDate": "2017-10-14"
  },
  {
    "id": 189,
    "category": "Home",
    "subCategory": "Cooking",
    "name": "Cooking Machine",
    "latitude": 35.073343,
    "longitude": -106.582320,
    "quantity": 38,
    "weight": 2.84,
    "estDeliveryDate": "2012-10-14"
  },
  {
    "id": 190,
    "category": "Electronics",
    "subCategory": "Phone",
    "name": "Phone Rig",
    "latitude": 39.948310,
    "longitude": -83.782050,
    "quantity": 34,
    "weight": 1,
    "estDeliveryDate": "2014-08-20"
  },
  {
    "id": 191,
    "category": "Automotive",
    "subCategory": "Car",
    "name": "Car Equipment",
    "latitude": 41.594283,
    "longitude": -90.846900,
    "quantity": 32,
    "weight": 3.39,
    "estDeliveryDate": "2019-06-23"
  },
  {
    "id": 192,
    "category": "Home",
    "subCategory": "Cleaning",
    "name": "Cleaning Equipment",
    "latitude": 46.902376,
    "longitude": -123.017043,
    "quantity": 28,
    "weight": 5.64,
    "estDeliveryDate": "2022-05-23"
  },
  {
    "id": 193,
    "category": "Activity",
    "subCategory": "Camping",
    "name": "Camping Item",
    "latitude": 34.073670,
    "longitude": -78.482140,
    "quantity": 16,
    "weight": 5,
    "estDeliveryDate": "2010-12-12"
  },
  {
    "id": 194,
    "category": "Health",
    "subCategory": "Vitamin",
    "name": "Vitamin Gear",
    "latitude": 33.728568,
    "longitude": -86.660520,
    "quantity": 31,
    "weight": 7.48,
    "estDeliveryDate": "2012-11-12"
  },
  {
    "id": 195,
    "category": "Home",
    "subCategory": "Furniture",
    "name": "Furniture Apparatus",
    "latitude": 41.702433,
    "longitude": -76.555650,
    "quantity": 17,
    "weight": 1,
    "estDeliveryDate": "2010-07-24"
  },
  {
    "id": 196,
    "category": "Home",
    "subCategory": "Kitchen",
    "name": "Kitchen Instrument",
    "latitude": 40.393090,
    "longitude": -90.137480,
    "quantity": 20,
    "weight": 1.02,
    "estDeliveryDate": "2022-06-28"
  },
  {
    "id": 197,
    "category": "Home",
    "subCategory": "Furniture",
    "name": "Furniture Item",
    "latitude": 26.117636,
    "longitude": -97.170190,
    "quantity": 27,
    "weight": 4.30,
    "estDeliveryDate": "2019-06-05"
  },
  {
    "id": 198,
    "category": "Activity",
    "subCategory": "Sports",
    "name": "Sports Thingamajig",
    "latitude": 39.832075,
    "longitude": -100.538720,
    "quantity": 16,
    "weight": 8.88,
    "estDeliveryDate": "2010-02-20"
  },
  {
    "id": 199,
    "category": "Home",
    "subCategory": "Gardening",
    "name": "Gardening Instrument",
    "latitude": 42.499242,
    "longitude": -94.182560,
    "quantity": 29,
    "weight": 7.36,
    "estDeliveryDate": "2012-07-19"
  },
  {
    "id": 200,
    "category": "Clothing",
    "subCategory": "Womens",
    "name": "Womens Instrument",
    "latitude": 40.754757,
    "longitude": -73.601772,
    "quantity": 89,
    "weight": 4,
    "estDeliveryDate": "2013-05-30"
  },
  {
    "id": 201,
    "category": "Automotive",
    "subCategory": "Truck",
    "name": "Truck Gear",
    "latitude": 42.067809,
    "longitude": -88.108280,
    "quantity": 35,
    "weight": 1.29,
    "estDeliveryDate": "2021-12-19"
  },
  {
    "id": 202,
    "category": "Entertainment",
    "subCategory": "Party",
    "name": "Party Kit",
    "latitude": 38.880811,
    "longitude": -77.112950,
    "quantity": 20,
    "weight": 5.20,
    "estDeliveryDate": "2022-04-01"
  },
  {
    "id": 203,
    "category": "Beauty",
    "subCategory": "Makeup",
    "name": "Makeup Apparatus",
    "latitude": 34.297754,
    "longitude": -91.004030,
    "quantity": 25,
    "weight": 1,
    "estDeliveryDate": "2013-02-25"
  },
  {
    "id": 204,
    "category": "Clothing",
    "subCategory": "Mens",
    "name": "Mens Attachment",
    "latitude": 41.692480,
    "longitude": -86.265140,
    "quantity": 33,
    "weight": 3.40,
    "estDeliveryDate": "2020-04-05"
  },
  {
    "id": 205,
    "category": "Activity",
    "subCategory": "Camping",
    "name": "Camping Supplies",
    "latitude": 43.274498,
    "longitude": -83.538220,
    "quantity": 26,
    "weight": 2,
    "estDeliveryDate": "2018-02-12"
  },
  {
    "id": 206,
    "category": "Pets",
    "subCategory": "Aquarium",
    "name": "Aquarium Supplies",
    "latitude": 45.869314,
    "longitude": -101.318000,
    "quantity": 13,
    "weight": 1,
    "estDeliveryDate": "2013-05-10"
  },
  {
    "id": 207,
    "category": "Automotive",
    "subCategory": "Car",
    "name": "Car Thingamajig",
    "latitude": 39.990562,
    "longitude": -75.129570,
    "quantity": 26,
    "weight": 2,
    "estDeliveryDate": "2015-03-05"
  },
  {
    "id": 208,
    "category": "Activity",
    "subCategory": "Fitness",
    "name": "Fitness Gadget",
    "latitude": 37.903557,
    "longitude": -87.249886,
    "quantity": 32,
    "weight": 3.62,
    "estDeliveryDate": "2011-07-10"
  },
  {
    "id": 209,
    "category": "Clothing",
    "subCategory": "Baby",
    "name": "Baby Widget",
    "latitude": 34.998573,
    "longitude": -91.984170,
    "quantity": 65,
    "weight": 1,
    "estDeliveryDate": "2020-01-26"
  },
  {
    "id": 210,
    "category": "Beauty",
    "subCategory": "Bath",
    "name": "Bath Gear",
    "latitude": 42.462036,
    "longitude": -82.902320,
    "quantity": 42,
    "weight": 4,
    "estDeliveryDate": "2015-11-29"
  },
  {
    "id": 211,
    "category": "Entertainment",
    "subCategory": "Game",
    "name": "Game Instrument",
    "latitude": 36.586193,
    "longitude": -121.886670,
    "quantity": 35,
    "weight": 1.68,
    "estDeliveryDate": "2016-09-02"
  },
  {
    "id": 212,
    "category": "Entertainment",
    "subCategory": "Book",
    "name": "Book Doodad",
    "latitude": 33.786594,
    "longitude": -118.298662,
    "quantity": 19,
    "weight": 1.36,
    "estDeliveryDate": "2012-12-12"
  },
  {
    "id": 213,
    "category": "Clothing",
    "subCategory": "Womens",
    "name": "Womens Doodad",
    "latitude": 40.796752,
    "longitude": -73.689350,
    "quantity": 30,
    "weight": 5.45,
    "estDeliveryDate": "2021-10-08"
  },
  {
    "id": 214,
    "category": "Pets",
    "subCategory": "Cat",
    "name": "Cat Kit",
    "latitude": 42.671054,
    "longitude": -113.629760,
    "quantity": 23,
    "weight": 9.69,
    "estDeliveryDate": "2018-09-26"
  },
  {
    "id": 215,
    "category": "Activity",
    "subCategory": "Beach",
    "name": "Beach Whatchamacallit",
    "latitude": 46.632549,
    "longitude": -106.396410,
    "quantity": 27,
    "weight": 3.80,
    "estDeliveryDate": "2020-10-22"
  },
  {
    "id": 216,
    "category": "Home",
    "subCategory": "Home Improvement",
    "name": "Home Improvement Tool",
    "latitude": 33.786594,
    "longitude": -118.298662,
    "quantity": 15,
    "weight": 7,
    "estDeliveryDate": "2015-02-23"
  },
  {
    "id": 217,
    "category": "Clothing",
    "subCategory": "Kids",
    "name": "Kids Widget",
    "latitude": 40.460669,
    "longitude": -80.011440,
    "quantity": 40,
    "weight": 3,
    "estDeliveryDate": "2021-09-02"
  },
  {
    "id": 218,
    "category": "Automotive",
    "subCategory": "Truck",
    "name": "Truck Gear",
    "latitude": 45.015914,
    "longitude": -93.471880,
    "quantity": 92,
    "weight": 1,
    "estDeliveryDate": "2011-10-02"
  },
  {
    "id": 219,
    "category": "Beauty",
    "subCategory": "Personal",
    "name": "Personal Doodad",
    "latitude": 37.970726,
    "longitude": -122.524012,
    "quantity": 17,
    "weight": 2,
    "estDeliveryDate": "2010-01-01"
  },
  {
    "id": 220,
    "category": "Entertainment",
    "subCategory": "Toy",
    "name": "Toy Machine",
    "latitude": 40.754305,
    "longitude": -73.979782,
    "quantity": 37,
    "weight": 3,
    "estDeliveryDate": "2015-08-06"
  },
  {
    "id": 221,
    "category": "Pets",
    "subCategory": "Dog",
    "name": "Dog Implement",
    "latitude": 37.214471,
    "longitude": -81.789670,
    "quantity": 30,
    "weight": 2.30,
    "estDeliveryDate": "2018-05-26"
  },
  {
    "id": 222,
    "category": "Home",
    "subCategory": "Home Improvement",
    "name": "Home Improvement Equipment",
    "latitude": 39.816536,
    "longitude": -105.011230,
    "quantity": 50,
    "weight": 9,
    "estDeliveryDate": "2010-08-20"
  },
  {
    "id": 223,
    "category": "Activity",
    "subCategory": "Sports",
    "name": "Sports Equipment",
    "latitude": 42.352416,
    "longitude": -79.323502,
    "quantity": 30,
    "weight": 2,
    "estDeliveryDate": "2018-06-09"
  },
  {
    "id": 224,
    "category": "Activity",
    "subCategory": "Fitness",
    "name": "Fitness Machine",
    "latitude": 37.862197,
    "longitude": -91.938110,
    "quantity": 60,
    "weight": 7,
    "estDeliveryDate": "2023-01-26"
  },
  {
    "id": 225,
    "category": "Entertainment",
    "subCategory": "Book",
    "name": "Book Rig",
    "latitude": 31.066479,
    "longitude": -81.626560,
    "quantity": 42,
    "weight": 1.07,
    "estDeliveryDate": "2011-05-26"
  },
  {
    "id": 226,
    "category": "Activity",
    "subCategory": "Beach",
    "name": "Beach Gadget",
    "latitude": 39.184660,
    "longitude": -84.360140,
    "quantity": 28,
    "weight": 3,
    "estDeliveryDate": "2013-10-27"
  },
  {
    "id": 227,
    "category": "Home",
    "subCategory": "Bedding",
    "name": "Bedding Contraption",
    "latitude": 30.744225,
    "longitude": -98.431670,
    "quantity": 81,
    "weight": 3,
    "estDeliveryDate": "2018-07-31"
  },
  {
    "id": 228,
    "category": "Activity",
    "subCategory": "Outdoors",
    "name": "Outdoors Rig",
    "latitude": 36.132092,
    "longitude": -92.166380,
    "quantity": 25,
    "weight": 6,
    "estDeliveryDate": "2019-06-19"
  },
  {
    "id": 229,
    "category": "Automotive",
    "subCategory": "Truck",
    "name": "Truck Widget",
    "latitude": 36.757025,
    "longitude": -92.534140,
    "quantity": 18,
    "weight": 3.85,
    "estDeliveryDate": "2016-10-13"
  },
  {
    "id": 230,
    "category": "Activity",
    "subCategory": "Fitness",
    "name": "Fitness Machine",
    "latitude": 47.830550,
    "longitude": -110.648690,
    "quantity": 18,
    "weight": 1,
    "estDeliveryDate": "2018-10-08"
  },
  {
    "id": 231,
    "category": "Activity",
    "subCategory": "Biking",
    "name": "Biking Component",
    "latitude": 39.779492,
    "longitude": -86.132837,
    "quantity": 30,
    "weight": 2.61,
    "estDeliveryDate": "2017-01-03"
  },
  {
    "id": 232,
    "category": "Clothing",
    "subCategory": "Kids",
    "name": "Kids Gear",
    "latitude": 35.653630,
    "longitude": -77.776490,
    "quantity": 25,
    "weight": 1,
    "estDeliveryDate": "2017-07-13"
  },
  {
    "id": 233,
    "category": "Electronics",
    "subCategory": "Phone",
    "name": "Phone Machine",
    "latitude": 38.377411,
    "longitude": -121.444429,
    "quantity": 27,
    "weight": 1.93,
    "estDeliveryDate": "2022-06-15"
  },
  {
    "id": 234,
    "category": "Beauty",
    "subCategory": "Personal",
    "name": "Personal Kit",
    "latitude": 37.334629,
    "longitude": -82.875490,
    "quantity": 30,
    "weight": 2.92,
    "estDeliveryDate": "2021-11-04"
  },
  {
    "id": 235,
    "category": "Activity",
    "subCategory": "Biking",
    "name": "Biking Doodad",
    "latitude": 37.094139,
    "longitude": -86.974600,
    "quantity": 13,
    "weight": 1,
    "estDeliveryDate": "2023-10-16"
  },
  {
    "id": 236,
    "category": "Home",
    "subCategory": "Dining",
    "name": "Dining Whatchamacallit",
    "latitude": 34.817537,
    "longitude": -87.662530,
    "quantity": 28,
    "weight": 6,
    "estDeliveryDate": "2010-05-17"
  },
  {
    "id": 237,
    "category": "Clothing",
    "subCategory": "Baby",
    "name": "Baby Whatchamacallit",
    "latitude": 38.068036,
    "longitude": -122.740988,
    "quantity": 59,
    "weight": 31,
    "estDeliveryDate": "2017-07-22"
  },
  {
    "id": 238,
    "category": "Home",
    "subCategory": "Kitchen",
    "name": "Kitchen Component",
    "latitude": 29.847569,
    "longitude": -94.129733,
    "quantity": 31,
    "weight": 9,
    "estDeliveryDate": "2014-12-17"
  },
  {
    "id": 239,
    "category": "Home",
    "subCategory": "Furniture",
    "name": "Furniture Widget",
    "latitude": 37.997128,
    "longitude": -87.574963,
    "quantity": 46,
    "weight": 1,
    "estDeliveryDate": "2019-11-09"
  },
  {
    "id": 240,
    "category": "Home",
    "subCategory": "Bedding",
    "name": "Bedding Tool",
    "latitude": 44.972969,
    "longitude": -67.086970,
    "quantity": 37,
    "weight": 1.74,
    "estDeliveryDate": "2014-11-23"
  },
  {
    "id": 241,
    "category": "Activity",
    "subCategory": "Swimming",
    "name": "Swimming Device",
    "latitude": 40.167618,
    "longitude": -75.892590,
    "quantity": 22,
    "weight": 3.57,
    "estDeliveryDate": "2010-03-27"
  },
  {
    "id": 242,
    "category": "Home",
    "subCategory": "Cooking",
    "name": "Cooking Rig",
    "latitude": 36.045092,
    "longitude": -105.383300,
    "quantity": 49,
    "weight": 6.27,
    "estDeliveryDate": "2021-09-10"
  },
  {
    "id": 243,
    "category": "Entertainment",
    "subCategory": "Movie",
    "name": "Movie Gadget",
    "latitude": 43.674582,
    "longitude": -96.791340,
    "quantity": 36,
    "weight": 9.79,
    "estDeliveryDate": "2019-04-13"
  },
  {
    "id": 244,
    "category": "Health",
    "subCategory": "First Aid",
    "name": "First Aid Contraption",
    "latitude": 41.860809,
    "longitude": -79.317030,
    "quantity": 24,
    "weight": 4.50,
    "estDeliveryDate": "2018-02-15"
  },
  {
    "id": 245,
    "category": "Pets",
    "subCategory": "Aquarium",
    "name": "Aquarium Equipment",
    "latitude": 38.527816,
    "longitude": -78.251170,
    "quantity": 17,
    "weight": 1.01,
    "estDeliveryDate": "2018-10-26"
  },
  {
    "id": 246,
    "category": "Automotive",
    "subCategory": "Tire",
    "name": "Tire Gizmo",
    "latitude": 40.529278,
    "longitude": -105.372014,
    "quantity": 40,
    "weight": 6.00,
    "estDeliveryDate": "2013-07-05"
  },
  {
    "id": 247,
    "category": "Beauty",
    "subCategory": "Hair Care",
    "name": "Hair Care Component",
    "latitude": 47.653568,
    "longitude": -117.431742,
    "quantity": 32,
    "weight": 5.52,
    "estDeliveryDate": "2013-05-30"
  },
  {
    "id": 248,
    "category": "Activity",
    "subCategory": "Outdoors",
    "name": "Outdoors Tool",
    "latitude": 31.133004,
    "longitude": -83.427360,
    "quantity": 23,
    "weight": 4.73,
    "estDeliveryDate": "2011-02-27"
  },
  {
    "id": 249,
    "category": "Entertainment",
    "subCategory": "Party",
    "name": "Party Implement",
    "latitude": 43.972307,
    "longitude": -74.153210,
    "quantity": 28,
    "weight": 3,
    "estDeliveryDate": "2023-08-17"
  },
  {
    "id": 250,
    "category": "Clothing",
    "subCategory": "Mens",
    "name": "Mens Tool",
    "latitude": 41.942171,
    "longitude": -80.480020,
    "quantity": 98,
    "weight": 1.23,
    "estDeliveryDate": "2023-11-30"
  },
  {
    "id": 251,
    "category": "Entertainment",
    "subCategory": "Game",
    "name": "Game Gizmo",
    "latitude": 40.820558,
    "longitude": -75.585370,
    "quantity": 15,
    "weight": 8.86,
    "estDeliveryDate": "2015-10-10"
  },
  {
    "id": 252,
    "category": "Health",
    "subCategory": "Medicine",
    "name": "Medicine Device",
    "latitude": 35.296539,
    "longitude": -90.772419,
    "quantity": 19,
    "weight": 4.18,
    "estDeliveryDate": "2017-03-20"
  },
  {
    "id": 253,
    "category": "Beauty",
    "subCategory": "Bath",
    "name": "Bath Mechanism",
    "latitude": 33.225377,
    "longitude": -86.864430,
    "quantity": 23,
    "weight": 4.41,
    "estDeliveryDate": "2014-05-18"
  },
  {
    "id": 254,
    "category": "Automotive",
    "subCategory": "Truck",
    "name": "Truck Mechanism",
    "latitude": 32.652790,
    "longitude": -86.714300,
    "quantity": 13,
    "weight": 3.41,
    "estDeliveryDate": "2014-03-09"
  },
  {
    "id": 255,
    "category": "Activity",
    "subCategory": "Camping",
    "name": "Camping Mechanism",
    "latitude": 42.270559,
    "longitude": -73.957290,
    "quantity": 10,
    "weight": 15,
    "estDeliveryDate": "2017-03-22"
  },
  {
    "id": 256,
    "category": "Beauty",
    "subCategory": "Makeup",
    "name": "Makeup Rig",
    "latitude": 39.366193,
    "longitude": -76.062300,
    "quantity": 11,
    "weight": 2,
    "estDeliveryDate": "2012-09-09"
  },
  {
    "id": 257,
    "category": "Electronics",
    "subCategory": "Computer",
    "name": "Computer Doodad",
    "latitude": 42.971648,
    "longitude": -123.064670,
    "quantity": 43,
    "weight": 5.08,
    "estDeliveryDate": "2011-05-03"
  },
  {
    "id": 258,
    "category": "Entertainment",
    "subCategory": "Book",
    "name": "Book Rig",
    "latitude": 42.199230,
    "longitude": -86.169430,
    "quantity": 41,
    "weight": 9,
    "estDeliveryDate": "2020-04-19"
  },
  {
    "id": 259,
    "category": "Clothing",
    "subCategory": "Mens",
    "name": "Mens Machine",
    "latitude": 43.519522,
    "longitude": -83.765290,
    "quantity": 37,
    "weight": 5.40,
    "estDeliveryDate": "2016-06-24"
  },
  {
    "id": 260,
    "category": "Automotive",
    "subCategory": "Truck",
    "name": "Truck Supplies",
    "latitude": 43.674582,
    "longitude": -96.791340,
    "quantity": 20,
    "weight": 4,
    "estDeliveryDate": "2019-06-30"
  },
  {
    "id": 261,
    "category": "Entertainment",
    "subCategory": "Music",
    "name": "Music Item",
    "latitude": 42.385744,
    "longitude": -78.237540,
    "quantity": 29,
    "weight": 7.73,
    "estDeliveryDate": "2017-06-20"
  },
  {
    "id": 262,
    "category": "Electronics",
    "subCategory": "Phone",
    "name": "Phone Doodad",
    "latitude": 37.849889,
    "longitude": -94.338133,
    "quantity": 88,
    "weight": 9,
    "estDeliveryDate": "2012-04-03"
  },
  {
    "id": 263,
    "category": "Electronics",
    "subCategory": "Camera",
    "name": "Camera Tool",
    "latitude": 40.203908,
    "longitude": -111.626081,
    "quantity": 28,
    "weight": 4.67,
    "estDeliveryDate": "2022-09-23"
  },
  {
    "id": 264,
    "category": "Electronics",
    "subCategory": "Camera",
    "name": "Camera Instrument",
    "latitude": 41.621779,
    "longitude": -70.504349,
    "quantity": 17,
    "weight": 4.24,
    "estDeliveryDate": "2018-08-09"
  },
  {
    "id": 265,
    "category": "Entertainment",
    "subCategory": "Toy",
    "name": "Toy Implement",
    "latitude": 43.105771,
    "longitude": -76.414820,
    "quantity": 18,
    "weight": 1,
    "estDeliveryDate": "2011-09-21"
  },
  {
    "id": 266,
    "category": "Activity",
    "subCategory": "Fitness",
    "name": "Fitness Kit",
    "latitude": 34.839417,
    "longitude": -89.158180,
    "quantity": 25,
    "weight": 5,
    "estDeliveryDate": "2018-12-21"
  },
  {
    "id": 267,
    "category": "Automotive",
    "subCategory": "Car",
    "name": "Car Gear",
    "latitude": 33.276539,
    "longitude": -112.187170,
    "quantity": 48,
    "weight": 1.43,
    "estDeliveryDate": "2010-09-13"
  },
  {
    "id": 268,
    "category": "Clothing",
    "subCategory": "Baby",
    "name": "Baby Rig",
    "latitude": 31.738817,
    "longitude": -89.970450,
    "quantity": 27,
    "weight": 2.05,
    "estDeliveryDate": "2011-05-02"
  },
  {
    "id": 269,
    "category": "Entertainment",
    "subCategory": "Movie",
    "name": "Movie Supplies",
    "latitude": 30.268572,
    "longitude": -81.739870,
    "quantity": 23,
    "weight": 0.10,
    "estDeliveryDate": "2014-02-24"
  },
  {
    "id": 270,
    "category": "Beauty",
    "subCategory": "Makeup",
    "name": "Makeup Accessory",
    "latitude": 32.759922,
    "longitude": -97.012160,
    "quantity": 36,
    "weight": 8,
    "estDeliveryDate": "2017-02-18"
  },
  {
    "id": 271,
    "category": "Activity",
    "subCategory": "Beach",
    "name": "Beach Supplies",
    "latitude": 33.750795,
    "longitude": -116.725620,
    "quantity": 18,
    "weight": 5.67,
    "estDeliveryDate": "2014-03-07"
  },
  {
    "id": 272,
    "category": "Automotive",
    "subCategory": "Tire",
    "name": "Tire Gizmo",
    "latitude": 41.229754,
    "longitude": -74.602030,
    "quantity": 53,
    "weight": 5.34,
    "estDeliveryDate": "2018-11-11"
  },
  {
    "id": 273,
    "category": "Activity",
    "subCategory": "Fitness",
    "name": "Fitness Thingamajig",
    "latitude": 38.363057,
    "longitude": -75.455740,
    "quantity": 18,
    "weight": 1,
    "estDeliveryDate": "2015-07-05"
  },
  {
    "id": 274,
    "category": "Electronics",
    "subCategory": "Computer",
    "name": "Computer Gizmo",
    "latitude": 38.716874,
    "longitude": -121.369800,
    "quantity": 78,
    "weight": 1.25,
    "estDeliveryDate": "2021-01-13"
  },
  {
    "id": 275,
    "category": "Home",
    "subCategory": "Dining",
    "name": "Dining Rig",
    "latitude": 38.143324,
    "longitude": -81.635780,
    "quantity": 39,
    "weight": 2,
    "estDeliveryDate": "2023-09-09"
  },
  {
    "id": 276,
    "category": "Home",
    "subCategory": "Storage",
    "name": "Storage Instrument",
    "latitude": 48.470278,
    "longitude": -99.674970,
    "quantity": 39,
    "weight": 9.77,
    "estDeliveryDate": "2015-09-04"
  },
  {
    "id": 277,
    "category": "Health",
    "subCategory": "Medicine",
    "name": "Medicine Accessory",
    "latitude": 35.818518,
    "longitude": -89.937510,
    "quantity": 19,
    "weight": 5,
    "estDeliveryDate": "2010-08-20"
  },
  {
    "id": 278,
    "category": "Home",
    "subCategory": "Cleaning",
    "name": "Cleaning Contraption",
    "latitude": 35.232465,
    "longitude": -96.235710,
    "quantity": 30,
    "weight": 5.05,
    "estDeliveryDate": "2012-08-06"
  },
  {
    "id": 279,
    "category": "Beauty",
    "subCategory": "Makeup",
    "name": "Makeup Gizmo",
    "latitude": 39.042297,
    "longitude": -79.606110,
    "quantity": 62,
    "weight": 5.05,
    "estDeliveryDate": "2014-09-02"
  },
  {
    "id": 280,
    "category": "Clothing",
    "subCategory": "Womens",
    "name": "Womens Whatchamacallit",
    "latitude": 39.423344,
    "longitude": -77.389020,
    "quantity": 20,
    "weight": 2,
    "estDeliveryDate": "2016-11-20"
  },
  {
    "id": 281,
    "category": "Automotive",
    "subCategory": "Car",
    "name": "Car Rig",
    "latitude": 40.036998,
    "longitude": -121.831299,
    "quantity": 25,
    "weight": 2,
    "estDeliveryDate": "2014-05-19"
  },
  {
    "id": 282,
    "category": "Activity",
    "subCategory": "Beach",
    "name": "Beach Kit",
    "latitude": 38.791139,
    "longitude": -122.610690,
    "quantity": 42,
    "weight": 7.05,
    "estDeliveryDate": "2018-12-20"
  },
  {
    "id": 283,
    "category": "Clothing",
    "subCategory": "Kids",
    "name": "Kids Tool",
    "latitude": 40.892995,
    "longitude": -111.888121,
    "quantity": 67,
    "weight": 5.43,
    "estDeliveryDate": "2018-10-20"
  },
  {
    "id": 284,
    "category": "Health",
    "subCategory": "Nutrition",
    "name": "Nutrition Mechanism",
    "latitude": 30.055195,
    "longitude": -95.468260,
    "quantity": 11,
    "weight": 3.26,
    "estDeliveryDate": "2023-08-18"
  },
  {
    "id": 285,
    "category": "Clothing",
    "subCategory": "Mens",
    "name": "Mens Paraphernalia",
    "latitude": 39.963355,
    "longitude": -92.886840,
    "quantity": 23,
    "weight": 6.64,
    "estDeliveryDate": "2014-05-17"
  },
  {
    "id": 286,
    "category": "Home",
    "subCategory": "Furniture",
    "name": "Furniture Instrument",
    "latitude": 41.193148,
    "longitude": -93.713880,
    "quantity": 38,
    "weight": 5.42,
    "estDeliveryDate": "2015-06-19"
  },
  {
    "id": 287,
    "category": "Activity",
    "subCategory": "Outdoors",
    "name": "Outdoors Component",
    "latitude": 35.432364,
    "longitude": -101.166870,
    "quantity": 31,
    "weight": 2,
    "estDeliveryDate": "2012-09-30"
  },
  {
    "id": 288,
    "category": "Activity",
    "subCategory": "Beach",
    "name": "Beach Equipment",
    "latitude": 32.263473,
    "longitude": -87.602140,
    "quantity": 26,
    "weight": 4.52,
    "estDeliveryDate": "2016-09-18"
  },
  {
    "id": 289,
    "category": "Activity",
    "subCategory": "Swimming",
    "name": "Swimming Mechanism",
    "latitude": 36.869206,
    "longitude": -86.663225,
    "quantity": 10,
    "weight": 3,
    "estDeliveryDate": "2021-08-06"
  },
  {
    "id": 290,
    "category": "Pets",
    "subCategory": "Cat",
    "name": "Cat Implement",
    "latitude": 44.528094,
    "longitude": -68.223330,
    "quantity": 27,
    "weight": 2.19,
    "estDeliveryDate": "2016-11-29"
  },
  {
    "id": 291,
    "category": "Electronics",
    "subCategory": "Camera",
    "name": "Camera Widget",
    "latitude": 45.015914,
    "longitude": -93.471880,
    "quantity": 33,
    "weight": 4,
    "estDeliveryDate": "2022-01-30"
  },
  {
    "id": 292,
    "category": "Health",
    "subCategory": "First Aid",
    "name": "First Aid Tool",
    "latitude": 40.758667,
    "longitude": -73.980240,
    "quantity": 73,
    "weight": 4,
    "estDeliveryDate": "2022-04-04"
  },
  {
    "id": 293,
    "category": "Automotive",
    "subCategory": "Car",
    "name": "Car Accessory",
    "latitude": 41.738700,
    "longitude": -72.678890,
    "quantity": 38,
    "weight": 1.38,
    "estDeliveryDate": "2013-12-14"
  },
  {
    "id": 294,
    "category": "Clothing",
    "subCategory": "Jewelry",
    "name": "Jewelry Contraption",
    "latitude": 40.883641,
    "longitude": -87.966700,
    "quantity": 29,
    "weight": 8,
    "estDeliveryDate": "2013-07-24"
  },
  {
    "id": 295,
    "category": "Home",
    "subCategory": "Storage",
    "name": "Storage Apparatus",
    "latitude": 28.806417,
    "longitude": -96.993560,
    "quantity": 21,
    "weight": 1,
    "estDeliveryDate": "2015-10-25"
  },
  {
    "id": 296,
    "category": "Activity",
    "subCategory": "Swimming",
    "name": "Swimming Supplies",
    "latitude": 41.493381,
    "longitude": -75.549090,
    "quantity": 15,
    "weight": 2.45,
    "estDeliveryDate": "2016-02-08"
  },
  {
    "id": 297,
    "category": "Pets",
    "subCategory": "Aquarium",
    "name": "Aquarium Accessory",
    "latitude": 40.405370,
    "longitude": -78.101030,
    "quantity": 25,
    "weight": 1.09,
    "estDeliveryDate": "2020-03-18"
  },
  {
    "id": 298,
    "category": "Home",
    "subCategory": "Gardening",
    "name": "Gardening Machine",
    "latitude": 48.811975,
    "longitude": -102.273620,
    "quantity": 41,
    "weight": 4,
    "estDeliveryDate": "2020-01-16"
  },
  {
    "id": 299,
    "category": "Home",
    "subCategory": "Cleaning",
    "name": "Cleaning Kit",
    "latitude": 42.952124,
    "longitude": -71.653939,
    "quantity": 10,
    "weight": 1,
    "estDeliveryDate": "2013-02-17"
  },
  {
    "id": 300,
    "category": "Activity",
    "subCategory": "Swimming",
    "name": "Swimming Instrument",
    "latitude": 35.800108,
    "longitude": -86.193910,
    "quantity": 41,
    "weight": 4.13,
    "estDeliveryDate": "2016-03-25"
  },
  {
    "id": 301,
    "category": "Health",
    "subCategory": "First Aid",
    "name": "First Aid Implement",
    "latitude": 28.694847,
    "longitude": -97.241820,
    "quantity": 98,
    "weight": 1,
    "estDeliveryDate": "2012-05-26"
  },
  {
    "id": 302,
    "category": "Entertainment",
    "subCategory": "Party",
    "name": "Party Kit",
    "latitude": 35.633730,
    "longitude": -83.931380,
    "quantity": 17,
    "weight": 3,
    "estDeliveryDate": "2014-10-10"
  },
  {
    "id": 303,
    "category": "Home",
    "subCategory": "Dining",
    "name": "Dining Widget",
    "latitude": 41.002320,
    "longitude": -78.963060,
    "quantity": 85,
    "weight": 2.82,
    "estDeliveryDate": "2016-08-18"
  },
  {
    "id": 304,
    "category": "Home",
    "subCategory": "Bedding",
    "name": "Bedding Kit",
    "latitude": 41.970680,
    "longitude": -89.875080,
    "quantity": 31,
    "weight": 6,
    "estDeliveryDate": "2021-08-11"
  },
  {
    "id": 305,
    "category": "Entertainment",
    "subCategory": "Movie",
    "name": "Movie Widget",
    "latitude": 44.360566,
    "longitude": -74.258010,
    "quantity": 30,
    "weight": 8,
    "estDeliveryDate": "2016-07-05"
  },
  {
    "id": 306,
    "category": "Clothing",
    "subCategory": "Kids",
    "name": "Kids Apparatus",
    "latitude": 40.319956,
    "longitude": -79.359010,
    "quantity": 14,
    "weight": 57,
    "estDeliveryDate": "2019-03-24"
  },
  {
    "id": 307,
    "category": "Home",
    "subCategory": "Storage",
    "name": "Storage Equipment",
    "latitude": 37.404113,
    "longitude": -81.140780,
    "quantity": 13,
    "weight": 1,
    "estDeliveryDate": "2019-08-24"
  },
  {
    "id": 308,
    "category": "Home",
    "subCategory": "Gardening",
    "name": "Gardening Instrument",
    "latitude": 30.063101,
    "longitude": -93.859903,
    "quantity": 92,
    "weight": 6,
    "estDeliveryDate": "2022-12-31"
  },
  {
    "id": 309,
    "category": "Health",
    "subCategory": "Nutrition",
    "name": "Nutrition Paraphernalia",
    "latitude": 36.720381,
    "longitude": -82.260930,
    "quantity": 42,
    "weight": 1.34,
    "estDeliveryDate": "2011-10-14"
  },
  {
    "id": 310,
    "category": "Activity",
    "subCategory": "Swimming",
    "name": "Swimming Instrument",
    "latitude": 35.260020,
    "longitude": -80.804151,
    "quantity": 21,
    "weight": 4,
    "estDeliveryDate": "2011-04-07"
  },
  {
    "id": 311,
    "category": "Entertainment",
    "subCategory": "Party",
    "name": "Party Instrument",
    "latitude": 33.033780,
    "longitude": -80.842820,
    "quantity": 94,
    "weight": 9.10,
    "estDeliveryDate": "2020-04-27"
  },
  {
    "id": 312,
    "category": "Automotive",
    "subCategory": "Car",
    "name": "Car Doodad",
    "latitude": 48.612763,
    "longitude": -123.020570,
    "quantity": 20,
    "weight": 5,
    "estDeliveryDate": "2022-01-14"
  },
  {
    "id": 313,
    "category": "Pets",
    "subCategory": "Aquarium",
    "name": "Aquarium Component",
    "latitude": 41.664239,
    "longitude": -74.110600,
    "quantity": 79,
    "weight": 1,
    "estDeliveryDate": "2012-07-16"
  },
  {
    "id": 314,
    "category": "Automotive",
    "subCategory": "Tire",
    "name": "Tire Accessory",
    "latitude": 26.446463,
    "longitude": -81.932690,
    "quantity": 25,
    "weight": 1.60,
    "estDeliveryDate": "2021-01-14"
  },
  {
    "id": 315,
    "category": "Activity",
    "subCategory": "Biking",
    "name": "Biking Equipment",
    "latitude": 39.034273,
    "longitude": -104.071250,
    "quantity": 29,
    "weight": 2,
    "estDeliveryDate": "2016-08-03"
  },
  {
    "id": 316,
    "category": "Activity",
    "subCategory": "Camping",
    "name": "Camping Equipment",
    "latitude": 37.058356,
    "longitude": -88.140970,
    "quantity": 12,
    "weight": 1.71,
    "estDeliveryDate": "2014-02-08"
  },
  {
    "id": 317,
    "category": "Home",
    "subCategory": "Dining",
    "name": "Dining Apparatus",
    "latitude": 32.872122,
    "longitude": -109.792670,
    "quantity": 31,
    "weight": 7.02,
    "estDeliveryDate": "2020-12-16"
  },
  {
    "id": 318,
    "category": "Entertainment",
    "subCategory": "Party",
    "name": "Party Instrument",
    "latitude": 41.330967,
    "longitude": -92.345210,
    "quantity": 33,
    "weight": 5,
    "estDeliveryDate": "2010-12-29"
  },
  {
    "id": 319,
    "category": "Clothing",
    "subCategory": "Womens",
    "name": "Womens Machine",
    "latitude": 32.285877,
    "longitude": -94.181100,
    "quantity": 15,
    "weight": 3,
    "estDeliveryDate": "2015-08-05"
  },
  {
    "id": 320,
    "category": "Electronics",
    "subCategory": "Phone",
    "name": "Phone Gear",
    "latitude": 18.414408,
    "longitude": -65.975820,
    "quantity": 67,
    "weight": 4,
    "estDeliveryDate": "2015-03-13"
  },
  {
    "id": 321,
    "category": "Entertainment",
    "subCategory": "Music",
    "name": "Music Gear",
    "latitude": 41.150146,
    "longitude": -73.491780,
    "quantity": 28,
    "weight": 2.27,
    "estDeliveryDate": "2011-02-06"
  },
  {
    "id": 322,
    "category": "Home",
    "subCategory": "Cooking",
    "name": "Cooking Supplies",
    "latitude": 26.156854,
    "longitude": -80.314080,
    "quantity": 35,
    "weight": 1,
    "estDeliveryDate": "2011-09-07"
  },
  {
    "id": 323,
    "category": "Electronics",
    "subCategory": "Phone",
    "name": "Phone Component",
    "latitude": 61.190260,
    "longitude": -149.893410,
    "quantity": 68,
    "weight": 2,
    "estDeliveryDate": "2021-10-18"
  },
  {
    "id": 324,
    "category": "Beauty",
    "subCategory": "Personal",
    "name": "Personal Accessory",
    "latitude": 44.379147,
    "longitude": -83.835390,
    "quantity": 11,
    "weight": 4.38,
    "estDeliveryDate": "2013-08-15"
  },
  {
    "id": 325,
    "category": "Entertainment",
    "subCategory": "Party",
    "name": "Party Doodad",
    "latitude": 31.869259,
    "longitude": -102.031726,
    "quantity": 32,
    "weight": 3,
    "estDeliveryDate": "2018-08-14"
  },
  {
    "id": 326,
    "category": "Pets",
    "subCategory": "Aquarium",
    "name": "Aquarium Doodad",
    "latitude": 36.939016,
    "longitude": -97.338750,
    "quantity": 27,
    "weight": 2,
    "estDeliveryDate": "2017-11-23"
  },
  {
    "id": 327,
    "category": "Entertainment",
    "subCategory": "Music",
    "name": "Music Apparatus",
    "latitude": 38.973583,
    "longitude": -91.535560,
    "quantity": 16,
    "weight": 4,
    "estDeliveryDate": "2020-06-10"
  },
  {
    "id": 328,
    "category": "Beauty",
    "subCategory": "Bath",
    "name": "Bath Supplies",
    "latitude": 31.971394,
    "longitude": -81.071560,
    "quantity": 14,
    "weight": 3,
    "estDeliveryDate": "2012-10-08"
  },
  {
    "id": 329,
    "category": "Entertainment",
    "subCategory": "Party",
    "name": "Party Mechanism",
    "latitude": 27.365549,
    "longitude": -82.486590,
    "quantity": 34,
    "weight": 2,
    "estDeliveryDate": "2015-06-25"
  },
  {
    "id": 330,
    "category": "Electronics",
    "subCategory": "Camera",
    "name": "Camera Contraption",
    "latitude": 41.809299,
    "longitude": -87.710500,
    "quantity": 10,
    "weight": 3.04,
    "estDeliveryDate": "2023-01-28"
  },
  {
    "id": 331,
    "category": "Clothing",
    "subCategory": "Kids",
    "name": "Kids Rig",
    "latitude": 41.488642,
    "longitude": -99.817910,
    "quantity": 39,
    "weight": 9.11,
    "estDeliveryDate": "2018-06-29"
  },
  {
    "id": 332,
    "category": "Electronics",
    "subCategory": "Phone",
    "name": "Phone Contraption",
    "latitude": 43.192619,
    "longitude": -96.324120,
    "quantity": 30,
    "weight": 6.94,
    "estDeliveryDate": "2016-01-10"
  },
  {
    "id": 333,
    "category": "Home",
    "subCategory": "Dining",
    "name": "Dining Device",
    "latitude": 40.446361,
    "longitude": -79.246110,
    "quantity": 13,
    "weight": 2,
    "estDeliveryDate": "2010-11-18"
  },
  {
    "id": 334,
    "category": "Clothing",
    "subCategory": "Womens",
    "name": "Womens Equipment",
    "latitude": 42.638533,
    "longitude": -83.131426,
    "quantity": 12,
    "weight": 1.39,
    "estDeliveryDate": "2023-07-23"
  },
  {
    "id": 335,
    "category": "Automotive",
    "subCategory": "Tire",
    "name": "Tire Paraphernalia",
    "latitude": 41.033347,
    "longitude": -73.568040,
    "quantity": 30,
    "weight": 7.61,
    "estDeliveryDate": "2014-06-07"
  },
  {
    "id": 336,
    "category": "Home",
    "subCategory": "Kitchen",
    "name": "Kitchen Device",
    "latitude": 44.371587,
    "longitude": -86.012200,
    "quantity": 27,
    "weight": 1.81,
    "estDeliveryDate": "2011-09-03"
  },
  {
    "id": 337,
    "category": "Automotive",
    "subCategory": "Car",
    "name": "Car Gizmo",
    "latitude": 41.378166,
    "longitude": -91.366930,
    "quantity": 38,
    "weight": 8,
    "estDeliveryDate": "2022-08-16"
  },
  {
    "id": 338,
    "category": "Entertainment",
    "subCategory": "Toy",
    "name": "Toy Widget",
    "latitude": 44.094773,
    "longitude": -70.191410,
    "quantity": 23,
    "weight": 9,
    "estDeliveryDate": "2018-03-28"
  },
  {
    "id": 339,
    "category": "Pets",
    "subCategory": "Dog",
    "name": "Dog Tool",
    "latitude": 26.344128,
    "longitude": -98.180110,
    "quantity": 16,
    "weight": 4,
    "estDeliveryDate": "2015-06-27"
  },
  {
    "id": 340,
    "category": "Activity",
    "subCategory": "Camping",
    "name": "Camping Thingamajig",
    "latitude": 43.048777,
    "longitude": -83.330730,
    "quantity": 27,
    "weight": 2,
    "estDeliveryDate": "2015-07-30"
  },
  {
    "id": 341,
    "category": "Beauty",
    "subCategory": "Makeup",
    "name": "Makeup Doodad",
    "latitude": 38.491190,
    "longitude": -80.830690,
    "quantity": 12,
    "weight": 4.35,
    "estDeliveryDate": "2011-09-21"
  },
  {
    "id": 342,
    "category": "Home",
    "subCategory": "Home Improvement",
    "name": "Home Improvement Apparatus",
    "latitude": 44.195201,
    "longitude": -73.471940,
    "quantity": 34,
    "weight": 1,
    "estDeliveryDate": "2011-01-01"
  },
  {
    "id": 343,
    "category": "Health",
    "subCategory": "Vitamin",
    "name": "Vitamin Doodad",
    "latitude": 38.324259,
    "longitude": -75.877930,
    "quantity": 40,
    "weight": 1,
    "estDeliveryDate": "2014-03-04"
  },
  {
    "id": 344,
    "category": "Beauty",
    "subCategory": "Bath",
    "name": "Bath Paraphernalia",
    "latitude": 40.391590,
    "longitude": -74.393290,
    "quantity": 13,
    "weight": 1.91,
    "estDeliveryDate": "2023-04-24"
  },
  {
    "id": 345,
    "category": "Home",
    "subCategory": "Dining",
    "name": "Dining Paraphernalia",
    "latitude": 27.777000,
    "longitude": -97.463213,
    "quantity": 41,
    "weight": 7,
    "estDeliveryDate": "2011-09-04"
  },
  {
    "id": 346,
    "category": "Entertainment",
    "subCategory": "Book",
    "name": "Book Implement",
    "latitude": 38.253191,
    "longitude": -103.762090,
    "quantity": 41,
    "weight": 9.08,
    "estDeliveryDate": "2011-09-05"
  },
  {
    "id": 347,
    "category": "Activity",
    "subCategory": "Swimming",
    "name": "Swimming Doodad",
    "latitude": 41.414864,
    "longitude": -76.583910,
    "quantity": 26,
    "weight": 1,
    "estDeliveryDate": "2021-03-02"
  },
  {
    "id": 348,
    "category": "Entertainment",
    "subCategory": "Toy",
    "name": "Toy Implement",
    "latitude": 32.667612,
    "longitude": -90.391570,
    "quantity": 12,
    "weight": 3,
    "estDeliveryDate": "2012-04-24"
  },
  {
    "id": 349,
    "category": "Beauty",
    "subCategory": "Hair Care",
    "name": "Hair Care Gadget",
    "latitude": 40.292388,
    "longitude": -90.428330,
    "quantity": 10,
    "weight": 1.38,
    "estDeliveryDate": "2021-10-04"
  },
  {
    "id": 350,
    "category": "Activity",
    "subCategory": "Sports",
    "name": "Sports Apparatus",
    "latitude": 17.734211,
    "longitude": -64.734694,
    "quantity": 36,
    "weight": 9.04,
    "estDeliveryDate": "2015-06-07"
  },
  {
    "id": 351,
    "category": "Pets",
    "subCategory": "Cat",
    "name": "Cat Gadget",
    "latitude": 41.328011,
    "longitude": -78.358540,
    "quantity": 22,
    "weight": 1.57,
    "estDeliveryDate": "2021-10-21"
  },
  {
    "id": 352,
    "category": "Activity",
    "subCategory": "Camping",
    "name": "Camping Gadget",
    "latitude": 42.255694,
    "longitude": -77.789040,
    "quantity": 42,
    "weight": 3,
    "estDeliveryDate": "2014-05-30"
  },
  {
    "id": 353,
    "category": "Clothing",
    "subCategory": "Baby",
    "name": "Baby Device",
    "latitude": 39.996577,
    "longitude": -86.619280,
    "quantity": 24,
    "weight": 3,
    "estDeliveryDate": "2015-10-28"
  },
  {
    "id": 354,
    "category": "Automotive",
    "subCategory": "Truck",
    "name": "Truck Gadget",
    "latitude": 41.733433,
    "longitude": -96.504540,
    "quantity": 40,
    "weight": 9.31,
    "estDeliveryDate": "2021-06-15"
  },
  {
    "id": 355,
    "category": "Electronics",
    "subCategory": "Technology",
    "name": "Technology Whatchamacallit",
    "latitude": 31.608083,
    "longitude": -101.865240,
    "quantity": 57,
    "weight": 5,
    "estDeliveryDate": "2014-03-25"
  },
  {
    "id": 356,
    "category": "Beauty",
    "subCategory": "Personal",
    "name": "Personal Instrument",
    "latitude": 40.551575,
    "longitude": -81.728416,
    "quantity": 35,
    "weight": 9,
    "estDeliveryDate": "2016-09-09"
  },
  {
    "id": 357,
    "category": "Activity",
    "subCategory": "Camping",
    "name": "Camping Device",
    "latitude": 39.749457,
    "longitude": -89.606017,
    "quantity": 17,
    "weight": 2.03,
    "estDeliveryDate": "2023-03-20"
  },
  {
    "id": 358,
    "category": "Entertainment",
    "subCategory": "Toy",
    "name": "Toy Widget",
    "latitude": 28.495982,
    "longitude": -81.536200,
    "quantity": 50,
    "weight": 4.10,
    "estDeliveryDate": "2014-04-25"
  },
  {
    "id": 359,
    "category": "Activity",
    "subCategory": "Outdoors",
    "name": "Outdoors Implement",
    "latitude": 32.722049,
    "longitude": -115.959980,
    "quantity": 32,
    "weight": 78,
    "estDeliveryDate": "2019-03-08"
  },
  {
    "id": 360,
    "category": "Entertainment",
    "subCategory": "Toy",
    "name": "Toy Apparatus",
    "latitude": 32.915891,
    "longitude": -88.257640,
    "quantity": 37,
    "weight": 4.28,
    "estDeliveryDate": "2010-04-06"
  },
  {
    "id": 361,
    "category": "Home",
    "subCategory": "Cooking",
    "name": "Cooking Item",
    "latitude": 31.349348,
    "longitude": -100.494912,
    "quantity": 40,
    "weight": 2.75,
    "estDeliveryDate": "2021-11-08"
  },
  {
    "id": 362,
    "category": "Entertainment",
    "subCategory": "Movie",
    "name": "Movie Kit",
    "latitude": 39.678590,
    "longitude": -86.086340,
    "quantity": 19,
    "weight": 3.75,
    "estDeliveryDate": "2022-08-01"
  },
  {
    "id": 363,
    "category": "Health",
    "subCategory": "First Aid",
    "name": "First Aid Mechanism",
    "latitude": 43.878112,
    "longitude": -71.220690,
    "quantity": 28,
    "weight": 5,
    "estDeliveryDate": "2022-09-11"
  },
  {
    "id": 364,
    "category": "Entertainment",
    "subCategory": "Music",
    "name": "Music Device",
    "latitude": 32.311287,
    "longitude": -90.397157,
    "quantity": 20,
    "weight": 4.80,
    "estDeliveryDate": "2022-11-11"
  },
  {
    "id": 365,
    "category": "Health",
    "subCategory": "Vitamin",
    "name": "Vitamin Accessory",
    "latitude": 36.444215,
    "longitude": -94.783450,
    "quantity": 41,
    "weight": 6,
    "estDeliveryDate": "2015-04-03"
  },
  {
    "id": 366,
    "category": "Entertainment",
    "subCategory": "Movie",
    "name": "Movie Machine",
    "latitude": 25.726500,
    "longitude": -81.201510,
    "quantity": 38,
    "weight": 4.56,
    "estDeliveryDate": "2015-08-23"
  },
  {
    "id": 367,
    "category": "Electronics",
    "subCategory": "Computer",
    "name": "Computer Gear",
    "latitude": 37.330496,
    "longitude": -121.791410,
    "quantity": 33,
    "weight": 1,
    "estDeliveryDate": "2014-06-24"
  },
  {
    "id": 368,
    "category": "Activity",
    "subCategory": "Biking",
    "name": "Biking Item",
    "latitude": 35.941421,
    "longitude": -97.254950,
    "quantity": 38,
    "weight": 1,
    "estDeliveryDate": "2010-03-22"
  },
  {
    "id": 369,
    "category": "Electronics",
    "subCategory": "Computer",
    "name": "Computer Instrument",
    "latitude": 47.432251,
    "longitude": -121.803388,
    "quantity": 18,
    "weight": 2.21,
    "estDeliveryDate": "2010-06-25"
  },
  {
    "id": 370,
    "category": "Home",
    "subCategory": "Cooking",
    "name": "Cooking Gear",
    "latitude": 41.031691,
    "longitude": -78.726840,
    "quantity": 70,
    "weight": 2,
    "estDeliveryDate": "2018-06-12"
  },
  {
    "id": 371,
    "category": "Automotive",
    "subCategory": "Tire",
    "name": "Tire Gizmo",
    "latitude": 40.277076,
    "longitude": -76.385727,
    "quantity": 68,
    "weight": 4.92,
    "estDeliveryDate": "2017-02-03"
  },
  {
    "id": 372,
    "category": "Activity",
    "subCategory": "Outdoors",
    "name": "Outdoors Instrument",
    "latitude": 43.796535,
    "longitude": -93.491430,
    "quantity": 30,
    "weight": 1.72,
    "estDeliveryDate": "2022-06-29"
  },
  {
    "id": 373,
    "category": "Clothing",
    "subCategory": "Womens",
    "name": "Womens Gear",
    "latitude": 43.146870,
    "longitude": -108.893490,
    "quantity": 40,
    "weight": 2,
    "estDeliveryDate": "2023-05-11"
  },
  {
    "id": 374,
    "category": "Automotive",
    "subCategory": "Truck",
    "name": "Truck Whatchamacallit",
    "latitude": 41.596769,
    "longitude": -86.292991,
    "quantity": 38,
    "weight": 1,
    "estDeliveryDate": "2023-11-02"
  },
  {
    "id": 375,
    "category": "Clothing",
    "subCategory": "Womens",
    "name": "Womens Device",
    "latitude": 38.349517,
    "longitude": -76.548390,
    "quantity": 24,
    "weight": 1.77,
    "estDeliveryDate": "2018-08-27"
  },
  {
    "id": 376,
    "category": "Electronics",
    "subCategory": "Technology",
    "name": "Technology Gear",
    "latitude": 40.754757,
    "longitude": -73.601772,
    "quantity": 42,
    "weight": 4,
    "estDeliveryDate": "2012-08-13"
  },
  {
    "id": 377,
    "category": "Clothing",
    "subCategory": "Womens",
    "name": "Womens Contraption",
    "latitude": 42.053783,
    "longitude": -96.505360,
    "quantity": 13,
    "weight": 1,
    "estDeliveryDate": "2016-12-11"
  },
  {
    "id": 378,
    "category": "Activity",
    "subCategory": "Outdoors",
    "name": "Outdoors Machine",
    "latitude": 47.517269,
    "longitude": -92.070600,
    "quantity": 52,
    "weight": 3,
    "estDeliveryDate": "2014-02-16"
  },
  {
    "id": 379,
    "category": "Activity",
    "subCategory": "Outdoors",
    "name": "Outdoors Device",
    "latitude": 37.988745,
    "longitude": -90.007850,
    "quantity": 26,
    "weight": 4.81,
    "estDeliveryDate": "2015-03-27"
  },
  {
    "id": 380,
    "category": "Activity",
    "subCategory": "Sports",
    "name": "Sports Gizmo",
    "latitude": 42.462734,
    "longitude": -83.458650,
    "quantity": 18,
    "weight": 53,
    "estDeliveryDate": "2021-06-02"
  },
  {
    "id": 381,
    "category": "Activity",
    "subCategory": "Biking",
    "name": "Biking Tool",
    "latitude": 29.628266,
    "longitude": -99.738470,
    "quantity": 39,
    "weight": 6.49,
    "estDeliveryDate": "2022-03-04"
  },
  {
    "id": 382,
    "category": "Automotive",
    "subCategory": "Tire",
    "name": "Tire Thingamajig",
    "latitude": 37.603344,
    "longitude": -81.539980,
    "quantity": 61,
    "weight": 3.18,
    "estDeliveryDate": "2016-11-10"
  },
  {
    "id": 383,
    "category": "Activity",
    "subCategory": "Outdoors",
    "name": "Outdoors Paraphernalia",
    "latitude": 41.732505,
    "longitude": -74.608960,
    "quantity": 51,
    "weight": 1,
    "estDeliveryDate": "2021-01-04"
  },
  {
    "id": 384,
    "category": "Beauty",
    "subCategory": "Skin Care",
    "name": "Skin Care Machine",
    "latitude": 34.830158,
    "longitude": -92.170174,
    "quantity": 24,
    "weight": 2.09,
    "estDeliveryDate": "2013-04-20"
  },
  {
    "id": 385,
    "category": "Home",
    "subCategory": "Dining",
    "name": "Dining Item",
    "latitude": 39.038252,
    "longitude": -100.232200,
    "quantity": 35,
    "weight": 7.27,
    "estDeliveryDate": "2021-05-27"
  },
  {
    "id": 386,
    "category": "Electronics",
    "subCategory": "Phone",
    "name": "Phone Thingamajig",
    "latitude": 43.031413,
    "longitude": -85.550267,
    "quantity": 28,
    "weight": 2.36,
    "estDeliveryDate": "2023-08-07"
  },
  {
    "id": 387,
    "category": "Beauty",
    "subCategory": "Skin Care",
    "name": "Skin Care Machine",
    "latitude": 40.694298,
    "longitude": -86.204238,
    "quantity": 30,
    "weight": 9.58,
    "estDeliveryDate": "2020-10-19"
  },
  {
    "id": 388,
    "category": "Activity",
    "subCategory": "Camping",
    "name": "Camping Doodad",
    "latitude": 44.809476,
    "longitude": -84.717270,
    "quantity": 89,
    "weight": 3.03,
    "estDeliveryDate": "2016-04-01"
  },
  {
    "id": 389,
    "category": "Home",
    "subCategory": "Dining",
    "name": "Dining Accessory",
    "latitude": 43.676947,
    "longitude": -72.308200,
    "quantity": 34,
    "weight": 1,
    "estDeliveryDate": "2023-01-20"
  },
  {
    "id": 390,
    "category": "Home",
    "subCategory": "Cleaning",
    "name": "Cleaning Accessory",
    "latitude": 37.471602,
    "longitude": -84.039360,
    "quantity": 22,
    "weight": 1,
    "estDeliveryDate": "2010-08-12"
  },
  {
    "id": 391,
    "category": "Clothing",
    "subCategory": "Mens",
    "name": "Mens Thingamajig",
    "latitude": 42.343576,
    "longitude": -75.314600,
    "quantity": 34,
    "weight": 3,
    "estDeliveryDate": "2023-02-28"
  },
  {
    "id": 392,
    "category": "Home",
    "subCategory": "Bedding",
    "name": "Bedding Paraphernalia",
    "latitude": 19.112099,
    "longitude": -155.798594,
    "quantity": 19,
    "weight": 2.74,
    "estDeliveryDate": "2014-01-05"
  },
  {
    "id": 393,
    "category": "Pets",
    "subCategory": "Aquarium",
    "name": "Aquarium Tool",
    "latitude": 30.403156,
    "longitude": -89.498210,
    "quantity": 15,
    "weight": 1.68,
    "estDeliveryDate": "2015-12-31"
  },
  {
    "id": 394,
    "category": "Automotive",
    "subCategory": "Tire",
    "name": "Tire Attachment",
    "latitude": 37.748645,
    "longitude": -76.667350,
    "quantity": 19,
    "weight": 1.68,
    "estDeliveryDate": "2011-04-09"
  },
  {
    "id": 395,
    "category": "Electronics",
    "subCategory": "Phone",
    "name": "Phone Contraption",
    "latitude": 34.356732,
    "longitude": -101.767690,
    "quantity": 89,
    "weight": 2,
    "estDeliveryDate": "2018-11-24"
  },
  {
    "id": 396,
    "category": "Activity",
    "subCategory": "Camping",
    "name": "Camping Machine",
    "latitude": 43.888754,
    "longitude": -73.658120,
    "quantity": 38,
    "weight": 1,
    "estDeliveryDate": "2010-05-18"
  },
  {
    "id": 397,
    "category": "Beauty",
    "subCategory": "Skin Care",
    "name": "Skin Care Widget",
    "latitude": 39.989282,
    "longitude": -88.151740,
    "quantity": 21,
    "weight": 4.54,
    "estDeliveryDate": "2010-05-10"
  },
  {
    "id": 398,
    "category": "Beauty",
    "subCategory": "Bath",
    "name": "Bath Gizmo",
    "latitude": 39.143979,
    "longitude": -77.207617,
    "quantity": 21,
    "weight": 5.86,
    "estDeliveryDate": "2011-12-31"
  },
  {
    "id": 399,
    "category": "Clothing",
    "subCategory": "Jewelry",
    "name": "Jewelry Rig",
    "latitude": 38.880811,
    "longitude": -77.112950,
    "quantity": 12,
    "weight": 1.00,
    "estDeliveryDate": "2018-07-24"
  },
  {
    "id": 400,
    "category": "Health",
    "subCategory": "Medicine",
    "name": "Medicine Accessory",
    "latitude": 31.908690,
    "longitude": -96.407440,
    "quantity": 20,
    "weight": 1,
    "estDeliveryDate": "2016-03-18"
  },
  {
    "id": 401,
    "category": "Electronics",
    "subCategory": "Technology",
    "name": "Technology Implement",
    "latitude": 40.464571,
    "longitude": -84.187630,
    "quantity": 37,
    "weight": 5,
    "estDeliveryDate": "2012-12-20"
  },
  {
    "id": 402,
    "category": "Home",
    "subCategory": "Cleaning",
    "name": "Cleaning Thingamajig",
    "latitude": 33.708618,
    "longitude": -117.956290,
    "quantity": 25,
    "weight": 27,
    "estDeliveryDate": "2013-09-02"
  },
  {
    "id": 403,
    "category": "Beauty",
    "subCategory": "Makeup",
    "name": "Makeup Mechanism",
    "latitude": 37.137615,
    "longitude": -84.115617,
    "quantity": 27,
    "weight": 2,
    "estDeliveryDate": "2023-11-17"
  },
  {
    "id": 404,
    "category": "Entertainment",
    "subCategory": "Game",
    "name": "Game Rig",
    "latitude": 34.313014,
    "longitude": -86.192820,
    "quantity": 12,
    "weight": 1,
    "estDeliveryDate": "2016-06-02"
  },
  {
    "id": 405,
    "category": "Activity",
    "subCategory": "Outdoors",
    "name": "Outdoors Item",
    "latitude": 45.234609,
    "longitude": -122.797490,
    "quantity": 26,
    "weight": 9.28,
    "estDeliveryDate": "2011-01-14"
  },
  {
    "id": 406,
    "category": "Activity",
    "subCategory": "Beach",
    "name": "Beach Instrument",
    "latitude": 26.375954,
    "longitude": -80.107170,
    "quantity": 34,
    "weight": 6.29,
    "estDeliveryDate": "2010-08-08"
  },
  {
    "id": 407,
    "category": "Electronics",
    "subCategory": "Computer",
    "name": "Computer Widget",
    "latitude": 47.079345,
    "longitude": -117.176954,
    "quantity": 27,
    "weight": 2.89,
    "estDeliveryDate": "2019-09-14"
  },
  {
    "id": 408,
    "category": "Entertainment",
    "subCategory": "Book",
    "name": "Book Tool",
    "latitude": 41.208834,
    "longitude": -76.738770,
    "quantity": 38,
    "weight": 4.68,
    "estDeliveryDate": "2016-02-23"
  },
  {
    "id": 409,
    "category": "Home",
    "subCategory": "Storage",
    "name": "Storage Apparatus",
    "latitude": 33.544622,
    "longitude": -86.929208,
    "quantity": 18,
    "weight": 4,
    "estDeliveryDate": "2010-06-22"
  },
  {
    "id": 410,
    "category": "Home",
    "subCategory": "Kitchen",
    "name": "Kitchen Machine",
    "latitude": 41.445510,
    "longitude": -85.151490,
    "quantity": 27,
    "weight": 1.31,
    "estDeliveryDate": "2021-08-24"
  },
  {
    "id": 411,
    "category": "Home",
    "subCategory": "Furniture",
    "name": "Furniture Gear",
    "latitude": 37.693588,
    "longitude": -97.480419,
    "quantity": 31,
    "weight": 2.31,
    "estDeliveryDate": "2014-03-23"
  },
  {
    "id": 412,
    "category": "Beauty",
    "subCategory": "Bath",
    "name": "Bath Component",
    "latitude": 44.805487,
    "longitude": -93.766524,
    "quantity": 25,
    "weight": 9,
    "estDeliveryDate": "2016-10-08"
  },